city,total_margin,orders_count,lat,lon
Las Palmas de Gran Canaria,831.7016323808414,61,28.1117389404918,-15.448041016393443
San Cristóbal de La Laguna,442.67288749108684,24,28.471630788333332,-16.309262466666667
Santa Cruz de Tenerife,371.468627830417,23,28.449973546086955,-16.28114148130435
null,247.34845334717312,16,28.309680229999998,-16.628862635
Pedro Alvarez,223.45111107015683,5,28.520136709999996,-16.33500918
Vecindario,181.75865140485564,22,27.85544345,-15.46442177
