city,total_margin,orders_count,lat,lon
Sevilla,13713.534142474622,114,37.39635845839744,-5.953660203884615
Valencia,13577.379137233902,114,39.4646419515625,-0.368597524731875
Málaga,13350.769737101646,82,36.72643563949153,-4.460058291576271
Brighton,10012.240723518094,61,31.322322753586956,7.207748867274345
Palma,7650.058166476877,50,39.582740805,2.6576823286511626
Las Palmas de Gran Canaria,5489.520091900305,39,28.111738940491804,-15.448041016393441
Alicante (Alacant),5347.324993790773,48,38.35830484508197,-0.4932091899885246
Córdoba,5179.6918820948995,48,37.86825463342857,-4.782564197628572
Albacete,4657.319903210576,26,39.0203051755102,-1.8855159115306122
Cartagena,4512.271259102002,25,37.61602024214286,-0.9857328401023809
San Fernando,4024.246158376602,24,36.226894109999996,-18.014502254526313
Granada,3964.8614218321945,37,37.17868264081633,-3.600286904979592
Jerez de la Frontera,3063.718534420941,24,36.67944860083333,-6.136806250083333
Elche,2939.834017207749,16,38.27116099333333,-0.68085815616
El Grao de Castellón,2769.855526183859,14,39.97762727,0.003423831759
Almería,2637.5925624276792,16,36.859080830714284,-2.455144525357143
Torrent,2441.3667881859938,15,39.418035860740744,-0.4908937044518518
San Cristóbal de La Laguna,2434.9519734929163,15,28.471630788333332,-16.309262466666667
Villajoyosa,2363.089675378166,11,38.52103342,-0.251530554
Sanlúcar de Barrameda,2328.735124585768,15,36.79574927,-6.298176524
Huércal-Overa,2233.192901544867,5,37.40643926,-1.87983162
Santa Cruz de Tenerife,2141.2744086339917,16,28.44997354608696,-16.28114148130435
Alboraya,2122.4449119061806,2,39.49632889,-0.3399196029
Benalmádena,2073.4469333478683,10,36.59358456555555,-4.5571160308888885
Huelva,2069.70760588199,23,37.266805151199996,-6.94430972272
Elda,2042.4486358323277,11,38.47490264000001,-0.8207026736
Mitcham,1993.4244797640672,13,27.92192747894737,38.09586139009474
Talavera de la Reina,1944.1767875016294,18,39.95638658,-4.80601686
Mairena del Aljarafe,1938.0968775240492,10,37.33846012,-6.067255066
Marbella,1909.688655837439,16,36.513004088,-4.918056289800001
Benidorm,1865.731112806491,12,38.56067347,-0.1447721428
Cieza,1863.4938291329556,9,38.27373194,-1.470852888
Cádiz,1792.166982101768,8,36.511440015,-6.2728835431666665
Oliva,1780.4434391891268,6,38.89670835,-0.1043537399
Laguna,1767.1920504968002,11,-29.78642555117647,9.986383498823532
Vecindario,1754.9463027706302,14,27.85544345,-15.46442177
Espinardo,1721.731046743078,6,38.02742801,-1.157136604
Algeciras,1720.7118613717284,13,36.128457640952384,-5.464237267
Yecla,1712.8435285008584,10,38.6439043,-1.169653792
Macclesfield,1705.0379540389354,13,37.220813549090906,23.492767206363634
Linares,1686.932406301944,10,38.09720603,-3.641732926
Es Pont d'Inca,1669.8242407476941,7,39.62375726,2.728554461
Ceuta,1645.2598200298476,9,35.88917558461538,-5.331346018076923
La Línea de la Concepción,1641.5506595683285,7,36.18225236,-5.350750779
Villena,1635.9037839136267,5,38.63168798,-0.8635861483
Alcalá de Guadaíra,1505.8566928930277,11,37.29034196,-5.806239006
Catarroja,1484.4549314842566,12,39.3955345,-0.3962602117
Villafranca de los Barros,1472.2172536052767,5,38.5867935,-6.339230252
Burriana,1453.0224368667139,10,39.88992388,-0.074495578
Murcia,1434.7147806022517,13,37.970968257222225,-1.1241554027222223
La Guardia de Jaén,1404.3802532025813,8,37.76553167,-3.70369408
Torredonjimeno,1375.9497221275576,4,37.79813355,-4.03685845
El Paraíso,1364.25582251125,6,36.47025423,-5.029864593
Algemesí,1352.3027010165501,4,39.21366546,-0.4292462477999999
Dos Hermanas,1342.707899934335,7,37.281998048888894,-5.953419117222222
Glenview,1262.463173537442,13,12.574855444285713,15.389645022857152
Cobatillas,1244.9710388033257,3,38.0674134,-1.103234884
Ceutí,1243.1818824730524,6,38.08302909,-1.281925448
Nueva Jarilla,1175.0778848171487,11,36.68548679,-5.952290985
Urbanización Villanueva,1156.7068191345486,2,38.39550866,-0.5885414815
Baza,1147.9252734145482,5,37.41160112,-2.775542801
Brenes,1146.3006371670383,6,37.55361107,-5.877163773
Sedaví,1104.723997526603,6,39.40722781,-0.3660136494
Almendralejo,1084.9363482997096,4,38.70835739,-6.409800166
Polígono Industrial Cachapets,1072.8694219132226,5,38.23702584,-0.8147191219
Pottsville,1061.9925054669568,9,21.85305463272727,-13.578992150909096
Derramador,1059.7366220440501,9,38.1969764,-0.7179721089
El Puerto de Santa María,1052.1711564376742,8,36.6314427,-6.233522578
Cabezo de Torres,1046.6220298525625,6,38.03873296,-1.133453795
Claremont,1040.5845061644686,9,-4.314450265000001,14.7579298
Almazora,1035.0550497045078,9,39.95136164,-0.06815009378
Játiva,1032.572909402978,13,38.99465805,-0.5284541903
Pedro Alvarez,1030.9642796390795,3,28.52013671,-16.33500918
Melilla,1017.510969557059,7,35.279913484,-2.9443394522
Arrecife,1008.3971177599192,10,28.98007171,-13.561839419999998
Binisalem,993.5756632603834,2,39.68451309,2.8568245180000003
Utrera,991.84410514553,11,37.07687358,-5.762407297
Villarreal,974.3265054528304,11,39.93313198,-0.1287584866
Guardias Viejas,970.5303515300036,7,36.7439045,-2.801169821
Coria del Río,961.5875020169619,7,37.24703506,-6.035262648
Dehesa de Campoamor,957.8187739493668,7,37.92930781,-0.762501389
Castilleja de la Cuesta,956.2600525577467,4,37.38577369,-6.055670584
Zafra,947.6687986926619,4,38.4369174,-6.45058143
Antequera,946.4398134703553,5,37.03252911,-4.575149842
Jijona,937.8189012077248,3,38.54747486,-0.4904393208
Almansa,919.6040072514003,10,38.84116422,-1.09038558
Armilla,906.4695058037136,8,37.14797868,-3.619283524
Puerto de Sagunto,893.813338568892,5,39.65811702,-0.2309416578
Mislata,892.9073848715968,4,39.47576851,-0.4206130067
Cehegín,889.1449215162926,4,38.02337479,-1.772908002
Alcira,882.1520479599424,7,39.14972890999999,-0.42202985809999993
Azucaica,874.5829817480146,7,39.89152739,-3.983739247
Oakdale,866.265383224821,7,5.863629707777778,-0.1807234555555605
Lebrija,861.5671807924953,6,36.93946975,-6.061443743
Palma del Río,859.8821462545028,11,37.70499074,-5.235301845000001
Puerto del Rosario,850.5542133876346,8,28.49715181,-13.87494951
Mercalaspalmas,835.0369551043354,4,28.02941811,-15.4172311
Totana,827.2957187136084,7,37.75422946,-1.515631904
Las Gabias,821.8374464714311,4,37.13271091,-3.696553514
Alcalá la Real,813.3595474385273,6,37.45109255,-3.913722478
Sóller,810.8400922632467,7,39.77465367,2.70713879
La Gangosa,810.7514694375868,8,36.81192698,-2.662416419
Calahonda,809.7130517173575,1,36.53751533,-4.7121487
Ibiza,799.1264994836384,6,38.93125802,1.415275692
Urbanización el Trigal,790.0907672343399,9,39.10657529,-1.8691978600000003
Los Camachos,789.7848608098797,4,37.67488223,-0.9251903645
Villanueva de Córdoba,789.0886589087158,5,38.27608776,-4.629748683
Tabernes de la Valldigna,769.331238500543,7,39.08030537,-0.2547168346
Alhaurín de la Torre,762.9724186709691,5,36.66152225,-4.583020815
La Algaba,759.5805488947971,6,37.47269419,-6.017518761999999
Santa Margarita,751.3109108865468,4,36.20609565,-5.338912673
Conil de la Frontera,751.3030248358152,8,36.27321966,-6.074841354
Ingenio,743.7140473246471,7,27.930631162,-15.43559151
El Estepar,742.9014605501311,8,38.67861013,-0.5163363064
Arcos de la Frontera,740.6625391596418,6,36.74900002,-5.738011426
Gines,740.6360579663891,3,37.38638388,-6.076881827
La Puebla de Montalbán,726.7850878757465,2,39.81633221,-4.379348009
Cañada,719.9635514538445,4,39.53059227,-0.49496302989999996
Inca,715.1198057330722,6,39.71172579000001,2.942160161
Torrevieja,713.7135976798477,4,37.993971776,-0.70237169062
Dolores,710.8542051671774,3,37.81870372,-0.8633324278
Puente Genil,702.0147898953753,6,37.40679767,-4.759746865
Rincón de la Victoria,700.5601807339784,4,36.73265197,-4.275178531
Palmones,693.8034293172999,4,36.2158637,-5.4585269
Cuart de Poblet,683.6459112730922,6,39.4722775,-0.4957911638
Bétera,673.8420236811277,3,39.6155614,-0.4677476961
Playa del Hombre,667.5089982552454,5,27.99103317,-15.38237871
Peligros,662.7729342965793,3,37.24163914,-3.630212324
Archena,654.4936900949752,4,38.11232012,-1.296813682
Don Benito,648.4390546874849,4,38.8629812,-5.899990601
Porto Cristo,641.3159994459673,4,39.53778591,3.29253368
Gandía,637.2877879945237,3,38.97734823,-0.1807595288
La Puebla de Cazalla,635.204361615493,5,37.16233036,-5.275111394
Villarrobledo,633.2005238849554,5,39.19271943,-2.612162025
Torrellano,627.0586749511469,3,38.28935288,-0.5915337501
Alcácer,622.6583066593312,5,39.38108566,-0.4471561843
Paterna,617.1298127665373,5,39.52813872,-0.4509882608
Aspe,610.6919357126369,2,38.32953044,-0.7853103087000001
Can Pastilla,608.8190415694733,6,39.5316256,2.729698531
Paiporta,608.5716292593078,6,39.425878299999994,-0.4124031112
Guardamar del Segura,607.9320172768878,5,38.08533016,-0.6677385601
Avileses,604.3824855464327,4,37.83591597,-0.9283207610999998
Fortaleza de Isabel II,601.1890236490774,2,39.93825513,4.242766522
Chiclana de la Frontera,599.343147888603,6,36.39303000666667,-6.116447645
Las Lagunas de Mijas,599.053343680711,3,36.56535341000001,-4.677522305
Ayamonte,589.159949767797,5,37.28347815,-7.389440419
Gibraleón,587.1980989762411,4,37.39600066,-6.994450541
Torre-Pacheco,586.8519843976928,4,37.76047062,-0.9599845425
Alfaz del Pi,580.0873195436861,3,38.58598585,-0.09880268660999998
Calpe,578.5096530188181,6,38.65270893,0.04437321718
Pilas,577.8634893958798,3,37.30538854,-6.312922333
San Ginés,565.4610013682395,3,37.965048,-1.17455065
La Escarihuela,562.5941941907286,3,37.5804762,-1.768343372
Lucena,561.4470655042618,7,37.35337131,-4.535131052
Caravaca de la Cruz,557.7605998086086,7,38.10074304,-1.876530176
Pollensa,556.7289136844931,4,39.88616425,3.028195914
Carlton,548.5393505820936,5,18.93683305875,53.689506514375005
Pozo Izquierdo,547.7424232523671,3,27.835624460000002,-15.45108973
Campello,547.3848302347009,4,38.46230752,-0.3727130386
Utiel,547.1147834203391,2,39.6136302,-1.20929285
La Zubia,546.4603232852363,10,37.11023452,-3.571659518
Sagunto,541.6992164449051,4,39.69231484,-0.284684181
Grau y Playa,535.8815752733651,4,38.99581374,-0.1723912141
Costa Adeje,530.8495510057702,1,28.09543742,-16.71157351
La Unión,528.7835433068852,5,37.6089409,-0.8744562674999999
Las Torres de Cotillas,528.1253480197017,5,38.027231140000005,-1.2489895248
Cox,521.2877725155312,2,38.14444876,-0.9008369251999999
Sangonera la Verde,516.2279400790608,3,37.92792459,-1.208009592
Roquetas de Mar,515.5884136144043,2,36.75425187,-2.627763897
Baena,510.4802342989428,5,37.66529648,-4.332984607
Puerto Lumbreras,503.7403192844449,4,37.59299006,-1.874108832
Almonte,501.8385943098868,7,37.10272354,-6.534320329
Onil,500.36499264615605,4,38.63335509,-0.6610028134
Medina-Sidonia,499.16192277752964,3,36.4420262,-5.922548564
Mijas,492.38333740524376,4,36.59556416,-4.640855467
Toraixa,489.2468721075124,3,39.86439246,4.285856766
Puebla de Vallbona,486.87221629450727,4,39.60220803,-0.5424339983
San Isidro de Níjar,485.73036478074766,4,36.84699377,-2.153889823
Jumilla,484.7953866129037,5,38.48536065,-1.33224006
Ibi,482.6169290658233,4,38.62487001,-0.5629881335
Santa Pola,470.75837233391667,5,38.20350506,-0.5774350867
Cabo Blanco,470.5868641222688,1,28.06722177,-16.66218605
Punta Umbría,467.1529119508396,6,37.21629481,-7.016536554999999
Alcoy,462.86090552975065,5,38.69211837,-0.47408251190000006
Padul,462.0699249848869,3,37.01408783,-3.669921939
Sant Jordi,445.58043260042433,4,39.57147864,2.7891241609999997
Onda,444.5949019371405,4,39.97692365,-0.2379845
Badajoz,438.1592638249281,4,38.93453822285714,-6.985290185285715
El Calero,436.93892999841546,6,27.96923068,-15.421998249999998
Cuevas de los Medinas,436.420166471932,6,36.90323928,-2.297915509
Martos,436.3549509850044,7,37.70810878,-3.9991543819999995
Petrer,435.2957369773409,3,38.49216138,-0.7315818191
Torremolinos,429.78984103236706,6,36.62586605,-4.515778097
Montepinar,420.8621962744921,1,38.12717175,-0.9862777708
Pueblo Nuevo,419.6334845574169,6,39.01604103285714,-0.6623953569285714
Campo Olivar,415.3631052440474,5,39.53566538,-0.426718696
Güímar,415.23000031057745,2,28.31396595,-16.43363505
Valdepeñas,413.48711907226044,4,38.77167478,-3.402806174
Tafira Alta,412.9481410247149,5,28.05582566,-15.45255052
Los Palacios y Villafranca,412.3180459675201,2,37.17055075,-5.922271657
Águilas,399.5757910778215,6,37.40996395,-1.579035062
Alcázar de San Juan,398.4049701700813,2,39.311568689999994,-3.238970991
Motril,395.9589026875444,5,36.74774514,-3.4822572079999996
Son Sardina,395.24849659998716,3,39.63881608,2.650347894
Novelda,393.97113468699797,6,38.39421711,-0.7861804362999999
Mora,390.26733159177013,5,39.68829175,-3.7367330819999998
Dehesilla de Calamón,382.56333351868585,3,38.72501612,-6.938150437
El Viso del Alcor,379.4392824759793,2,37.38617341,-5.708971084
Madridejos,375.97710241249723,4,39.46597769,-3.537837488
Pedro Muñoz,372.17118026058813,5,39.39907517,-2.941427152
Es Canar,367.02830756464095,3,38.98629088,1.509557162
Arahal,366.9348915248296,3,37.20053119,-5.573442754
Barbate,366.6199495623272,3,36.19164126,-5.8559255729999995
Ronda,365.3100234839742,3,36.78369689,-5.13687287
Raiguero Poniente,364.9749605595588,4,38.08004967,-0.9873880429
Alayor,364.23198229233407,3,39.92119757,4.135314573
Villamartin,363.1129844316081,5,36.87282438,-5.616483370000001
Daimiel,362.75852495722216,3,39.06743149,-3.611414298
Santa Ponsa,361.6617300532567,3,39.53033404,2.48328495
Ocaña,356.61600041762,2,39.94667631,-3.512461702
Bailén,356.16615002596603,2,38.09272209,-3.778903217
Molina de Segura,353.1323988695428,3,38.0554402,-1.202954171
Ciudad Real,344.55537648633594,4,38.958836114,-3.9435435839999995
San Vicente del Raspeig,343.8768325184922,6,38.42813509,-0.5343674759
Sa Ràpita,343.3891208513724,3,39.39532991,2.896853659
Alcaudete,338.45759504651426,1,37.58404625,-4.084238269
San Pedro del Pinatar,338.43210207705346,3,37.83335799,-0.7893322653
Barranco Hondo,337.890420555707,4,28.39006238,-16.36728441
Villacarrillo,334.9462457451951,3,38.07938359,-3.013881984
Mazarrón,334.80492305780007,5,37.6375711,-1.373413209
Los Martínez del Puerto,334.24277911003054,4,37.82614897,-1.07723881
Loja,333.3424790869546,3,37.1520533,-4.182282204
San Javier,328.5010776084683,3,37.79100014,-0.8266140975999999
La Pardilla,317.12256676766333,2,28.01097715,-15.39886294
Úbeda,317.10159302037357,5,37.98923546,-3.325164451
Rota,317.03460079089933,7,36.66863087,-6.356023343
Alguazas,314.3202995043612,1,38.05213653,-1.246304816
El Palmar,312.9649514162421,1,37.92302373,-1.153915367
Bolaños de Calatrava,312.80072659719406,2,38.91003197,-3.6240940159999995
Castillo Caleta de Fuste,312.41267802876393,5,28.41431504,-13.87305007
Torre del Campo,311.20542041459487,2,37.82535478,-3.9144010779999996
Masamagrell,309.4349992554635,3,39.57447824,-0.3323012012
Coria,308.67914988297076,1,39.99132125,-6.535705638
Retamar,306.5918077400574,3,36.82839459,-2.286250372
Marchena,303.82799956575036,2,37.33207101,-5.364280034
San Juan de Alicante,302.9984997259453,3,38.40460688,-0.428581745
Carmona,302.98038204550824,2,37.45529351,-5.630945934
Torrijos,297.23460164335984,1,39.9837498,-4.284470857
Estación de Cártama,294.86123640209644,3,36.75913511,-4.619128212
Bargas,289.11624006568104,4,39.9482006,-4.074238008
La Luz,286.06026059582155,3,28.38966547,-16.54598808
Velilla-Taramay,285.46443104813216,2,36.76929139,-3.7246171850000005
Altea,279.5477675290811,2,38.62552633,-0.047368498929999996
Puerto de la Cruz,277.38491861833063,3,28.40750751,-16.5470934
Burjasot,275.0941509780943,5,39.508293380000005,-0.4112851656
Montequinto,274.0165437805976,3,37.33713917,-5.929584841
Mairena del Alcor,272.8476041324973,5,37.34924269,-5.741300508
Manacor,271.9017294514556,3,39.59186042,3.204813804
Calabardina,269.76035816650403,1,37.46944321,-1.590781002
Mérida,269.6416489327088,4,38.97404719,-6.413494564
Montoro,266.1857406487933,2,38.10552536,-4.36840718
Albolote,265.85061223961446,2,37.30764489,-3.659408227
San Jorge de ses Salines,264.2223010799668,1,38.8929878,1.3899672250000001
Sierramar,262.8828001152098,2,39.34274842,-0.4909866217
Puerto de Mazarrón,261.32400046661496,2,37.59294309,-1.206722485
Puerto Real,259.8880856229794,2,36.52530493,-6.101826971
Montijo,255.10917079907836,3,38.95093263,-6.578944824
Oasis del Sur,252.53399924933913,2,28.03726462,-16.62006689
La Alcudia,247.89404600058938,2,39.19280614,-0.5239642811
Chipiona,243.62286149343788,1,36.72697105,-6.406546403
La Herradura,241.9661988459874,3,27.99947476,-15.441448579999998
Vall de Uxó,241.4933744342114,6,39.81359531,-0.234979248
Muntanya de la Sella,240.94092280107915,1,38.7934517,0.03146603884
Maribãñez,240.46974227242382,4,37.09736138,-5.920087849999999
Espartinas,238.93667682056284,2,37.38529351,-6.12443575
Huétor Vega,235.56669062615873,3,37.14818106,-3.566534399
Mutxamel,230.04000082612038,1,38.44374015,-0.4729518367
Lorca,229.37205017219003,2,37.76964599,-1.816761104
Tarancón,224.5936471441392,3,39.99680419,-3.005748914
Las Cabezas de San Juan,221.2585183724123,2,36.98792319,-5.926801951
Benisa,221.00705762635974,2,38.6922592,0.03818072902
Vera,219.521936422686,1,37.22583905,-1.867810801
Miguelturra,218.69559050768504,2,38.95953203,-3.870655818
Lorquí,214.8992321831381,1,38.10128072,-1.250866869
Bormujos,214.05821931181916,2,37.3637474,-6.083190908
Benifayó,213.6240003251005,1,39.28480383,-0.44484932829999996
San Miguel de Salinas,210.33645148161537,3,37.97480186,-0.8030798502
Socuéllamos,207.55523899247333,5,39.25579635,-2.842133312
Lepe,206.95208991106958,3,37.28314502,-7.224170039
Jávea,205.51118973077877,2,38.79297971,0.1519828185
Pulgara,204.29820095731614,3,37.61080405,-1.567397723
Marcos Sanchez,202.32959491499656,1,28.27186062,-14.030547230000002
La Carlota,202.0421377573317,2,37.66325495,-4.928201182
Agüimes,199.33199996128678,2,27.898844210000004,-15.467878
Montilla,192.33903269328295,1,37.57222385,-4.638816406
Alcantarilla,189.40953118186937,3,37.9667582425,-1.21669825875
La Cañada,189.22329203578926,4,36.85042779,-2.401461337
Monóvar,187.0013422664961,4,38.42834013,-0.8678127791
Aguadulce,186.2546456486477,1,36.82324526,-2.585817824
Santiponce,184.38426231580763,1,37.43421964,-6.031082256
El Villar,182.48250024206934,2,38.64517028,-4.053373316
Jaén,181.48128041628866,4,37.80478504,-3.7400052559999994
Tabernes Blanques,179.51981640532833,2,39.51880318,-0.3817000734
Finestrat,175.07648999896105,3,38.57416058,-0.2033803739
Peñarroya-Pueblonuevo,173.28201508074045,2,38.31758131,-5.244332994
Cheste,172.8299996908754,1,39.50857288,-0.6775359572
Jódar,167.31420170871468,4,37.83197665,-3.331451999
Picaña,166.382912351614,2,39.43395515,-0.4362306483
La Rinconada,163.3499997435138,1,37.46327419,-5.889641125
Son Vida,160.5113963355481,1,39.5881626,2.598132894
Alcalá del Río,157.07691263135166,3,37.51974603,-5.973419341
Fuengirola,156.60624139868304,3,36.55814703,-4.614754059
Moratalla,153.42036064939697,2,38.19754632,-1.971517979
El Pino,151.5479999408126,2,38.08600078,-1.205070445
Alberique,150.8394581509428,2,39.11823702,-0.537332757
Bullas,150.56559501839786,1,38.04822294,-1.6555366850000002
Torremendo,148.50000059232116,1,38.00780864,-0.8949363433
Tomares,147.5759998038411,2,37.3785176,-6.0407426585
San Roque,140.57640237273128,2,36.26044672,-5.350220762
Manises,137.01711064713945,2,39.49808871,-0.49565276129999997
El Alquián,129.6794090905843,3,36.85675005,-2.348212256
Sucina,127.75347644149392,1,37.90312549,-0.9693786557
Villamarchante,125.66136017800434,3,39.56020657,-0.6554939715
Tarifa,124.65600017085671,1,36.06384465,-5.599990690000001
Villanueva de la Serena,124.08893982648192,2,38.97131088,-5.752197216
Castalla,123.18060221883059,1,38.56797018,-0.6706137212
Foios,120.05970043720231,1,39.54514477,-0.36047388610000003
Turballos,119.73251953988847,1,38.78887729,-0.4461136501
Valdesalor,119.17035068181028,2,39.33830571,-6.601487621
Vejer de la Frontera,118.73672558577778,1,36.22680843,-5.943875725000001
Baeza,117.65955410637036,2,37.94259749,-3.486573888
Villarrubia de los Ojos,117.37199965305626,2,39.21573732,-3.644082294
Carlet,117.13625978380793,2,39.23465586,-0.5362027358
Aguilar de la Frontera,117.12507016158877,2,37.46235803,-4.677694697
La Herreña,115.9615514793925,1,37.97177442,-1.5665441410000003
Alhaurín el Grande,114.03599969297647,1,36.6456703,-4.682714391
San José de la Rinconada,112.1479499463413,2,37.50125055,-5.928361668
Alginet,111.65976016184294,2,39.25992691,-0.4639066555
Costa Calma,111.3209992740266,2,28.20516124,-14.19392849
La Solana,110.88773998971865,4,38.92814779,-3.212702356
Hellín,109.76363918122499,4,38.56246948,-1.766872598
Urbanización Roche Alto,108.10800028592351,1,37.60449404,-0.9441342838
Barrial,107.13060111777258,1,28.14694188,-15.68131167
Morón de la Frontera,106.21214910566658,1,37.11425332,-5.426920641
Denia,106.05014564732684,1,38.83772935,0.08960617902
Estepona,104.72801894063831,3,36.46960463,-5.150577444
Son Ferriol,102.64169943878352,2,39.57920793,2.727794845
Pinar de Campoverde,101.67084080708383,2,37.90009983,-0.8302329484
Estepa,101.4015915312195,2,37.30727423,-4.890877453
Cas Català,100.99320088232605,2,39.52331134,2.541615827
Puzol,99.67901994011879,2,39.61804814,-0.306014394
Bañeres,99.37188405825465,2,38.70548514,-0.6778647490999999
Churriana de la Vega,99.35999937728045,1,37.149669,-3.6424033140000005
Jesús Pobre,95.83083356176883,1,38.79900898,0.09998446197
Ollería,95.30459769588856,1,38.91460902,-0.5449705302
La Carolina,94.67895288512595,1,38.31605955,-3.622782016
Playa Blanca,93.53895066505876,2,28.86724074,-13.83218128
Santomera,93.00899951825289,2,38.08489233,-1.060077576
Consuegra,89.44509207887559,1,39.47981625,-3.688954126
Nerja,89.08971014265619,2,36.78682821,-3.8296146520000005
Requena,88.54524240903206,1,39.51585236,-1.06907711
Almagro,88.06938293825638,1,38.89933774,-3.729725155
El Caracolero,86.53500035405159,1,37.88715994,-1.109454939
Museros,85.34579913053736,2,39.57442126,-0.3593637897
San Antonio Abad,84.86412072004273,1,38.97920869,1.333966506
Marchuquera,84.22649948007614,1,38.9822483,-0.2400308671
Lo Cartagena,83.74500013806392,2,38.13418951,-0.8710600601
Playa Honda,80.51249993685633,1,28.95686381,-13.59137065
Cabra,80.35799998417497,1,37.49248091,-4.459117341
Nules,77.88240116580984,1,39.85246542,-0.1594363042
Majaneque,77.26320314877036,1,37.86631958,-4.728103753
Quintanar de la Orden,74.73389930515587,1,39.59749668,-3.018823595
Guaza,73.77980954182014,1,28.02962796,-16.67786089
Manzanares,70.75715937642396,2,39.02735883,-3.376362808
San Juan del Puerto,70.2960005030036,1,37.34022097,-6.842942158
El Bacarot,69.79500009957701,1,38.32837096,-0.5680129187
Valverde del Camino,63.07455098921878,1,37.55913093,-6.73991418
Can Picafort,62.47725000442564,1,39.77848627,3.109475124
Montellano,61.98041942133375,1,37.00446329,-5.547153189
El Varadero,53.23800002038479,1,36.72781735,-3.5373880129999997
Onteniente,51.46235993920952,1,38.81268873,-0.6552527508
Ogíjares,51.36380894575505,1,37.12332051,-3.616356333
Albalat dels Sorells,49.627949140164255,2,39.5514312,-0.3362561821
Maracena,47.91599974036217,1,37.21047444,-3.640068913
Cártama,46.71000148929655,1,36.71072852,-4.662876339
La Hoya,44.90999998524785,1,37.6991864,-1.5830766909999998
Torre de Benagalbón,42.743999864906066,1,36.75470913,-4.254591634
Agadir,40.92539933328554,1,27.8144236,-15.52751978
Los Realejos,39.97499995166436,1,28.38905031,-16.58066244
Aldaya,37.756439177559166,2,39.45987245,-0.4884354307
Albatera,37.48037853650273,1,38.21219449,-0.8886021467999999
Arinaga,37.31219964292198,2,27.86975719,-15.41048387
Almácera,36.300000082701445,1,39.51413623,-0.3502692481
Sueca,35.77199996262788,1,39.21487509,-0.3080293423
San Fulgencio,35.28000008314848,1,38.12292212,-0.6990255078
El Ejido,35.17080122591257,1,36.78868707,-2.797746948
Andújar,32.55000016652047,1,38.23689872,-4.05329228
Alacuás,30.749999871477485,1,39.45149913,-0.47076925880000003
Cartaya,30.716939308976237,2,37.32668185,-7.1608575
La Roda,28.781999965198338,1,39.18824538,-2.160700718
La Orotava,27.710551031184195,1,28.40542612,-16.51959343
Segorbe,26.423999905586243,1,39.78779295,-0.4630087591
Chirivella,23.291999995708462,1,39.45913908,-0.4303317488
Almusafes,23.268000058829784,1,39.29700081,-0.4114597466
Benaguacil,22.446719654432236,1,39.59397553,-0.6168557879
La Eliana,19.741829667737782,1,39.56261838,-0.5261780308
Mengíbar,17.40762053397775,1,37.96221053,-3.8084284690000003
Colinas de San Antonio,15.587999667271976,1,39.56227259,-0.4954013374
Las Infantas,14.259959886454945,1,37.87413499,-3.738304946
Pulianas,13.671000316455961,1,37.22630839,-3.6094958150000003
Bollullos Par del Condado,12.651900279694608,1,37.33027671,-6.535900417
Puertollano,10.080000042915344,1,38.68523159,-4.122531079
Guadix,8.878559997426867,1,37.36308706,-3.0984819370000003
