city,total_margin,orders_count,lat,lon
London,87946.3104838968,647,51.4265211747578,-0.7364994367030151
Madrid,67680.45154834072,509,40.425173481075696,-3.6757846476826024
Paris,47409.64450510984,325,48.8596933614375,2.3391989460729166
Berlin,35059.65380906675,298,52.49941087995465,13.428213501133788
Barcelona,26280.385323453887,202,41.39777323234483,2.1553944544551724
Hamburg,25679.322703765207,188,53.55387065752727,10.013640240483635
München,18034.09644118313,150,48.14782172127854,11.552493909452055
Köln,17345.007403445965,115,50.944065908554215,6.953641027638555
Marseille,15565.293218118146,114,43.303557563662785,5.405542468645349
Gorzów Wielkopolski,15213.216202962143,118,52.38014748,15.33408923
Bogatynia,14484.250314790905,106,51.22152827,15.72695507
Sevilla,13713.534142474622,114,37.39635845839744,-5.953660203884615
Valencia,13577.379137233902,114,39.4646419515625,-0.368597524731875
Birmingham,13357.664113670386,104,50.014283485,-12.904269183467532
Málaga,13350.769737101646,82,36.72643563949153,-4.460058291576271
Antwerp,12755.100331219339,88,51.24377983904,4.393030458768
Toulouse,12633.322541930533,98,43.601972581398606,1.4309318613076922
Bristol,11951.214002717166,101,49.4375689489726,-15.256946639671233
Frankfurt am Main,11382.439230411248,87,50.118735026818186,8.618135366530304
Zaragoza,11006.483024995154,58,41.64959925595238,-0.9022163808964285
Manchester,9452.378812911813,66,51.05749028628571,-17.491899130361904
Dortmund,8653.228501201309,66,51.520529700686275,7.461990772323529
Sheffield,8392.389120666761,64,53.38501347186046,-1.5026935049767443
Lyon,8086.416764930708,60,45.743694762333334,4.846031041288889
Duisburg,7830.380939640226,48,51.469832457692306,6.733872780576924
Coventry,7691.854829592157,56,52.14577343050633,-3.278851857594937
Palma,7650.058166476877,50,39.582740805,2.6576823286511626
Dresden,7510.621341599551,62,51.0621062177907,13.755325272674419
Strasbourg,7483.619776015263,56,48.57636620906977,7.770044206848837
Nice,7456.5098265394745,42,43.71061381738462,7.238850546215384
Brussels,7341.962962524797,39,50.86880884721312,4.3734927118688525
Hannover,7292.540149094051,60,52.38138435183908,9.771775177850575
Stuttgart,7258.833339275617,63,48.78480868452632,9.174282282042105
Nantes,7125.439239963873,57,47.22356282071429,-1.5539234271
Leipzig,6942.688431164503,40,51.34879847030303,12.35009927590909
Bilbao,6879.841398088245,42,43.25460386478873,-2.923088654197183
Nürnberg,6786.019309243596,45,49.45094514931507,11.05905748479452
Nottingham,6703.26774516121,60,52.97998768975309,-1.1591393586296295
Oxford,6644.245305304672,46,48.655460459718306,-17.842658857929578
Plymouth,6572.088896605125,47,48.07276493348485,-22.243644719636368
Valladolid,6446.152844470567,43,41.6419513777193,-4.741658611491228
Leeds,6440.609470018148,55,53.82250446604938,-1.5267702553950617
Münster,6305.024168713161,48,51.95510693605263,7.647461803631579
Leicester,6186.331512377561,63,52.6303428777381,-1.1161543007619048
Angers,5660.3536901131365,30,47.49141408909091,-0.5451941406727273
Bordeaux,5628.016234839791,42,44.851144457812495,-0.5806617516109375
Herne,5603.31925292796,26,51.54067283097561,7.212910323512195
Stoke-on-Trent,5559.9910609621,45,53.00657587322581,-2.1613791578225805
Lübeck,5541.539919861679,44,53.8661031515873,10.701010346825397
Schaerbeek,5522.58854683151,27,50.86181791,4.386214686
Glasgow,5392.978348725181,45,53.710971376406256,-13.673486833015623
Alicante (Alacant),5347.324993790773,48,38.35830484508197,-0.4932091899885246
Düsseldorf,5284.813807610838,46,51.215214290789476,6.8083245329078945
Derby,5274.23526085264,41,51.352995303898304,-11.212131190830508
Newcastle upon Tyne,5260.891270060041,42,54.98998731253968,-1.6196670613174604
Bochum,5236.3665954804555,36,51.483928493389826,7.2256365212203395
Córdoba,5179.6918820948995,48,37.86825463342857,-4.782564197628572
L'Hospitalet de Llobregat,5146.107567571361,51,41.36123739738461,2.1142111642
Swindon,5124.109712383299,24,51.57758335304347,-1.7765273024565218
Schwedt/Oder,5124.054061454129,42,52.9910920225,14.662023244166665
Bremen,5095.345602383506,44,53.08879353166667,8.768708984469697
Croydon,5094.958533216545,38,51.36550632,-0.06564003382
Toulon,5035.693419444677,37,43.13386336865384,5.949695983346153
San Sebastián,4903.877148769538,38,43.304983484509805,-1.965309373098039
Kingston upon Hull,4825.172108273275,36,53.78072308722223,-0.3503638740703704
Enfield,4737.948657378117,24,50.58568847749999,-8.110982330609446
Recklinghausen,4694.137334531883,13,51.60730233666666,7.209889511925926
Liverpool,4657.939719009857,39,53.4336482242,-2.9301356414
Albacete,4657.319903210576,26,39.0203051755102,-1.8855159115306122
Mönchengladbach,4629.201365550337,28,51.16508502790698,6.437531966418605
Edinburgh,4626.971993667777,48,55.93565343587302,-3.251483520809524
Sabadell,4604.955224222105,34,41.54487861183674,2.1026198856938776
Peterborough,4598.012396746271,34,52.5978773637037,-0.22984023863703704
Tours,4551.454325669667,29,47.40003241266667,0.6958197228755556
Cartagena,4512.271259102002,25,37.61602024214286,-0.9857328401023809
Bolton,4335.230860680198,33,53.58652155196078,-2.4322346683137255
Nanterre,4165.0707510680895,26,48.89620701,2.206929732
Ulm,4152.060405137839,21,48.39617539516129,9.953538561096776
Slough,4142.598435528866,28,51.53276916744186,-0.6212548964930232
Burgos,4098.608103061629,32,42.35503805465116,-3.6880556660232555
Ghent,4092.9617296375695,33,51.07638386196428,3.7326299784285712
Essen,4072.1272437760604,39,51.453339054705886,6.943564692254902
Rivas-Vaciamadrid,4047.211924241001,19,40.36856181,-3.52481419690625
Grand-Champ,4042.489099930871,5,47.7747917,-2.836523129
Dijon,4031.607543267404,18,47.32287207,5.037559812
San Fernando,4024.246158376602,24,36.226894109999996,-18.014502254526313
Granada,3964.8614218321945,37,37.17868264081633,-3.600286904979592
Montreuil,3959.0207110055812,27,48.86350633,2.448628269
Hounslow,3908.912009437471,27,51.4725887205,-0.37986393348
Boulogne-Billancourt,3875.164496715132,25,48.83637238,2.2391881
Reading,3864.91211219997,30,49.65640890697674,-13.182256822846513
Brest,3856.595249079885,24,48.40012992,-4.502250492
Bielefeld,3785.451258893042,29,52.012193202564106,8.558059143871795
Krefeld,3775.5401286003844,37,51.31547646924528,6.564575430264151
Mataró,3756.998135942368,19,41.54591591176471,2.4442041005588235
Ilford,3754.487427642751,23,51.58114733205128,0.08027151136538462
Aachen,3745.9103644441625,25,50.76922361264706,6.080503501764706
Montpellier,3697.999424032799,30,43.61606969113636,3.8698868736136363
Perpignan,3647.5008489863253,23,42.69112702666667,2.8998224873333336
Lille,3624.419472295795,36,50.63406715911111,3.052107223266667
Anderlecht,3590.8507805908307,18,50.82893643,4.292895927
Charleroi,3542.1425298218596,25,50.416712149736846,4.447477437684211
Grenoble,3536.17472158364,24,45.180423231999995,5.7218976252000004
Terrassa,3517.188175794587,29,41.565280851282054,2.017536056102564
Sunderland,3493.3713037444286,20,54.88125560057143,-1.4100616774857144
Oviedo,3489.240334541137,32,42.30008809804878,-11.357652165317074
Mannheim,3443.745169141907,24,49.507418188421056,8.50267476968421
Wolverhampton,3427.9207054986696,25,52.61002850787878,-2.1560865706666665
Choisy,3424.7820132702172,11,45.95698747,6.04456736
Londonderry,3411.179715554317,18,44.5466867175,-10.037780452291669
Bath,3341.2036803270844,16,51.351692804,-2.38130322752
Vigo,3341.081831219408,20,42.218743717857144,-8.726714839892857
Mainz,3336.1714576183194,20,49.978878356428574,8.253152853178571
Rennes,3330.1366650790314,26,48.1085873675,-1.68177551525
Augsburg,3321.0454742390953,30,48.3536533875,10.887570723863636
Badalona,3318.087652910314,28,41.45266090615385,2.2375742042307696
Arnas,3309.0132553117933,25,45.99253226,4.701283484
Castellón de la Plana,3307.8424152226203,23,40.00758517232558,-0.050724756210232556
Rugby,3303.2043664923826,13,52.37752550055556,-1.2493611234444444
Belfast,3286.6711349015973,25,54.57897989666667,-5.962561400333334
Karlsruhe,3269.631999832538,31,49.00905834708333,8.386105407958333
Le Havre,3252.4688159753073,20,49.49256834868421,0.14513421241578947
Viladecans,3241.145711351873,17,41.30310214,2.032023105
Thiais,3210.3014311371076,11,48.76084558,2.385484766
Braunschweig,3199.5865890475566,30,52.27998229475,10.515418945750001
Vénissieux,3177.120961555453,12,45.70424673,4.881208218
Fuenlabrada,3153.781596245519,24,40.29255358103448,-3.808492443448276
Rouen,3151.308820624436,19,49.437680515217394,1.0847071987826087
Potsdam,3150.9890130441554,20,52.42331421896552,13.035608209310345
Saint-Denis,3101.063332051226,15,48.93185365685714,2.359400108285714
Vitoria-Gasteiz,3096.2518698839144,19,42.85612766370371,-2.6834148966296296
Beaujeu-Saint-Vallier-Pierrejux-et-Quitteur,3072.16314178627,11,47.44514318,5.583592200999999
Gateshead,3065.211284002388,20,54.93603772714285,-1.5695111307857144
Jerez de la Frontera,3063.718534420941,24,36.67944860083333,-6.136806250083333
Herne Bay,3060.05498956098,8,51.35522123,1.136634978
St Albans,3054.1054593188683,19,51.774865610645165,-0.34500721670645157
Harrow,3041.5877787098807,20,51.59177889147059,-0.32874916705588236
Arsac,3006.742651520584,11,45.04254059,-0.6869426177
Rotherham,3003.5837224764323,16,53.43355113275862,-1.3509327336896553
Luton,2989.820572352767,36,51.90969181166667,-0.4272037047625
Albi,2966.301391493544,8,43.92573331,2.147368869
Getafe,2955.3935148917913,17,40.2960071052,-3.7214117958800004
Cardiff,2953.318827642236,24,51.48927963228571,-3.2137996534
Marl,2945.7677341620265,20,51.681608475,7.120899852352941
Rochdale,2941.4148235556436,25,53.62958718857143,-2.179547865314286
Elche,2939.834017207749,16,38.27116099333333,-0.68085815616
Colchester,2919.0162596327696,22,51.90955418621622,0.8955897586216217
Leuven,2882.260824287745,21,50.8821059764,4.69852562948
Gelsenkirchen,2871.7078348023388,17,51.56279161322581,7.082699103580645
Aalst,2868.855133815751,26,50.941138079090905,4.05628714330303
Fronton,2840.6241244695084,12,43.80864477,1.399302134
Erkrath,2829.651476471201,8,51.21738082,6.927811762
Las Rozas de Madrid,2822.3795616709863,26,40.517976287428574,-3.889151861685714
Horsham,2821.6066138114816,11,40.0988343425,17.475810105575
Ludwigshafen am Rhein,2810.804075968915,20,49.482472732000005,8.3975523229
Cholet,2803.0702763003283,11,47.0454836,-0.8775081202000001
Southampton,2799.6696066459835,22,47.69756392866667,-23.477483014166662
Uccle,2777.8868177124436,17,50.78978926,4.361416796
Bonn,2777.2490282435324,23,50.69495045351351,7.126199481513514
Sant Cugat del Vallès,2777.137041511156,18,41.476589493,2.0621453376
El Grao de Castellón,2769.855526183859,14,39.97762727,0.003423831759
Paderborn,2757.322472218892,24,51.735724092432434,8.75235409672973
Nuneaton,2745.2972658236667,18,52.52060636481482,-1.474765627962963
Levallois-Perret,2742.233284178512,18,48.89517176,2.28691042
Blyth,2714.8647024979073,13,53.521405948571434,-1.1505092266666668
León,2704.789680172493,13,42.585494764500005,-5.58819876835
Aberdeen,2698.3532840743555,25,55.037264181111105,-23.728921733916668
Norwich,2683.8865396663014,19,49.67239268166667,-18.277903527233335
Santander,2664.3942497801027,18,43.460032252727274,-3.843526498045455
Sint-Jans-Molenbeek,2654.6655784556096,18,50.85524166,4.318431061
Dagenham,2637.615954803831,23,51.550101581111115,0.14990191759722224
Almería,2637.5925624276792,16,36.859080830714284,-2.455144525357143
Portsmouth,2633.3159799524014,18,48.671730416428574,-15.690009752357142
Clermont-Ferrand,2621.3242729796293,21,45.79239210242424,3.1150000776363638
Reims,2618.0744405313594,23,49.25173891,4.040074839
Ingolstadt,2599.779733281532,25,48.76410604257143,11.399064484000002
Fürth,2599.47306457978,21,49.493952029259255,10.964091832962962
Reutlingen,2599.427371346366,15,48.48641664357143,9.186212949571429
Langenfeld (Rheinland),2593.6275709035317,14,51.11086937,6.95698655
Maizières-lès-Metz,2589.625687726569,13,49.2044202,6.153062312
Northampton,2588.8197729921612,25,52.25090807121212,-0.8954926306727272
Jena,2578.238811805845,20,50.9173623924138,11.578592023448277
La Coruña,2576.0294591292554,21,43.34758258555556,-8.420495024407408
Erlangen,2558.636579641704,14,49.580663491538466,10.96643388923077
Buckley,2551.5214429445896,14,53.16673452,-3.186694671
Muret,2550.3621263470823,18,43.45625875,1.284836671
Alsager,2539.679620801904,15,53.08366244,-2.274465226
Hamm,2520.136179381926,23,51.66073765676471,7.792346514441176
Düren,2506.1385281173225,10,50.79106413058823,6.449648906764707
Wath upon Dearne,2505.829448559155,7,53.52025933,-1.329180225
Alcorcón,2494.483559050674,18,40.351431915,-3.8291161086785714
Huddersfield,2493.361579280793,15,53.653458226086954,-1.8154111538695652
Wakefield,2485.0160086265437,12,53.671060732,-1.4984078082
Bradford,2464.3593856880047,18,53.78981972409091,-1.7561633691818181
Vic,2442.0888446188737,14,41.92276497,2.237641929
Torrent,2441.3667881859938,15,39.418035860740744,-0.4908937044518518
Balingen,2434.251332631204,18,48.26584783,8.86250296
Salamanca,2432.8624428444414,18,40.959174090384614,-5.671974882076923
Seraing,2424.101323414604,20,50.59508645370371,5.512994840592592
Dunkerque,2422.9993233526716,13,51.03141357916667,2.3622303310833335
Wallenhorst,2419.0800401352953,5,52.34461211,8.024000556
Magdeburg,2418.2604451190846,14,52.11014187200001,11.678703874000002
Moers,2417.2995398729195,18,51.46683968714286,6.618867395190477
Favières,2405.5287633285216,11,48.74496384,2.757913828
Reinbek,2405.010240463286,14,53.53054719,10.26368748
Ixelles,2398.588479074044,10,50.82227201,4.376748342
Orsett,2395.513072094756,8,51.50445778,0.3540476401
Wiesbaden,2383.279862806262,23,50.06743021870968,8.282099617032257
La Seyne-sur-Mer,2383.0888306036186,14,43.08925535,5.871182409
Schwerin,2371.150179729496,13,53.587331331739136,11.409768879565217
Telford,2369.460593880129,12,52.70536134636364,-2.471896848818182
Bad Segeberg,2363.650165659885,5,53.94117862,10.31069069
Rösrath,2363.5566932874663,11,50.90602978,7.183498592
Villajoyosa,2363.089675378166,11,38.52103342,-0.251530554
Mulhouse,2359.6384230005997,14,47.75081957285714,7.316479872214286
Cambuslang,2358.278937262409,12,55.80034537,-4.129262636
Itxassou,2354.709636241238,9,43.32506145,-1.4297336450000002
Annonay,2352.5738849563772,7,45.25212981,4.644424853
Willebroek,2351.5081961477754,9,51.05399128999999,4.36858267
Beauvais,2344.4307279516997,18,49.42722308,2.08470235
Dendermonde,2332.298366447656,14,51.02759508,4.09051786
Tarleton,2330.6854487055066,14,53.76113117,-2.839416042
Hildesheim,2330.5812055071237,15,52.14755584928571,9.944258196392857
Annecy,2330.0171825283783,20,45.887367534687506,6.11652353228125
Sanlúcar de Barrameda,2328.735124585768,15,36.79574927,-6.298176524
Barnet,2327.113681883417,16,51.65945673793103,-0.19365061451724136
Lowestoft,2321.461762344114,17,52.46764648043478,1.7035009341304348
Würzburg,2313.93045698211,18,49.764118020666665,9.9478782633
Pamplona,2307.624926741662,27,42.820274868249996,-1.6609666883999998
Southport,2304.3924722694715,21,53.645227755,-2.9716016874999998
Bridgwater,2291.3464320826315,9,51.1377369,-3.010095059
Hagen,2289.701765813777,15,51.36574442222222,7.468119174944444
Mechelen,2285.758612436126,21,51.035449735862066,4.463245682068965
Orpington,2274.4135368556754,7,51.35710579727273,0.09623362464545454
Besançon,2274.3798319808384,25,47.25523087,6.019330004
Móstoles,2273.9251345485277,23,40.32093976892857,-3.8941161978214285
Vallauris,2263.3587223581553,8,43.57639546,7.058404506
Versailles,2263.3555896291214,13,48.8022495,2.1175160599999994
Selston,2262.311511359095,14,53.03325095,-1.292581706
Argenteuil,2257.204236324357,19,48.95150116999999,2.240406645
Welwyn Garden City,2249.4463750557748,6,51.79607095,-0.1841749149
Roeselare,2245.660715749742,14,50.93686928,3.133524344
Highnam,2244.452141730416,12,51.83097046,-2.315698769
Huércal-Overa,2233.192901544867,5,37.40643926,-1.87983162
El Prat de Llobregat,2219.5054474029034,12,41.31027344,2.096241634
Doncaster,2213.600757642288,20,53.530395143750006,-1.1673416287187501
Saint-Étienne,2211.9824345796437,27,45.428442736,4.412811450257143
Logroño,2203.8681859886974,20,42.4611922356,-2.4341707716
Herstal,2202.253703693072,14,50.67930314,5.624047446
Aulnay-sous-Bois,2200.5738558359135,14,48.945997199999994,2.493332165
Esslingen am Neckar,2196.7787481204077,12,48.738768034736836,9.302372912842106
Hasselt,2193.2036483535658,15,50.934021885238096,5.332167432285714
Barnsley,2182.5513990465147,18,53.55829614285714,-1.4512584542857143
Sainte-Pazanne,2181.408539258864,8,47.09998033,-1.835261691
Majadahonda,2174.925141715184,11,40.468984861176466,-3.882563056
Malville,2174.7962104804355,7,47.34302243,-1.935374034
Aschersleben,2160.572300086578,16,51.7718135,11.47998733
Tornesch,2154.2097924329546,10,53.69080404999999,9.676505974
Newcastle-under-Lyme,2151.7143894181995,14,52.9900862,-2.272493886
Dudley,2151.5314867974967,17,52.51539804916667,-2.132529508708333
Manresa,2150.821060492028,17,41.724015352692305,1.8403398951538463
Thornton Heath,2150.6026660593725,9,51.40017987,-0.1063308155
Rousson,2147.741434622086,9,44.16217191,4.154057741
St Helens,2143.9840382214634,16,53.45904816727273,-2.7537191707272726
Erfurt,2136.809091428673,15,50.97747127454545,11.077869068636364
Ipswich,2136.3296299828316,21,52.060441571666665,1.1674335651999999
Sartrouville,2134.0291330935784,18,48.93980943,2.17446616
Guadalajara,2132.17109893846,20,40.609510554799996,-3.15621823668
Alboraya,2122.4449119061806,2,39.49632889,-0.3399196029
Singen (Hohentwiel),2122.0622590031403,15,47.76073916,8.870281769
Reus,2121.128146829339,13,41.15162102739131,1.1319288843913042
Littleport,2115.3979564074916,9,52.41022128,0.1983299696
Siegen,2112.569039045802,15,50.88242076526316,8.014614347157895
Leverkusen,2112.4373089329383,22,51.04229592966667,7.021834259533334
Aix-en-Provence,2106.3366110985016,19,43.525441470000004,5.427683535913044
Korschenbroich,2093.4801232613463,5,51.18567847,6.549303338
Ouffet,2089.2899627530187,3,50.44472388,5.465697501
Falkirk,2085.802191191125,16,55.98848804,-3.7811923315
Creil,2083.8384865168705,8,49.25338696,2.484068832
Freiburg im Breisgau,2082.47930538949,19,48.00263506931035,7.8271341217241375
Benalmádena,2073.4469333478683,10,36.59358456555555,-4.5571160308888885
Cornebarrieu,2073.1154175160677,8,43.66003764,1.319418641
Maidstone,2072.8083168248468,20,51.248324344838714,0.5069759957419355
Alcalá de Henares,2070.2107137051444,22,40.49011951566667,-3.3675796277
Huelva,2069.70760588199,23,37.266805151199996,-6.94430972272
Mülheim an der Ruhr,2067.2744738022393,16,51.411296040416666,6.909679503791667
Metz,2063.75376512902,13,49.118568862,6.1985996854
Lichtenfels,2055.917603673357,5,50.138188150000005,11.08442548
Hedge End,2053.8117873534634,11,50.92349267,-1.301088397
Pforzheim,2049.1686473676637,13,48.91192404,8.707916561
Rostock,2045.760746606729,15,54.12117146043479,12.144287809565219
Inverness,2043.5467204178,4,57.30355194,-4.302993723
Hyères,2043.1514122140948,7,43.10105626,6.190730405
Elda,2042.4486358323277,11,38.47490264000001,-0.8207026736
Eaubonne,2040.6289670960387,9,48.99104133,2.277505031
Béziers,2039.1886114345389,15,43.34748383,3.230810779
Parla,2038.1053549991477,13,40.228268088571426,-3.7627105353809527
Solingen,2035.200586855562,17,51.15775285538462,7.024158376
Preston,2034.956733773922,23,53.76791180642857,-2.6971775169285714
Oberhausen,2016.6156559444032,17,51.51493005333333,6.842596390851852
Gourgé,2007.2483899788554,11,46.67661169,-0.2204195637
Saint-Malo,1998.787889269684,11,48.63801422,-1.982510378
Alcobendas,1998.5032164018073,17,40.53658635629629,-3.638206652888889
Moncada y Reixach,1996.9907067341553,14,41.48953526,2.184660816
Aubagne,1990.095794016326,8,43.29365154,5.563217895
Ahrensburg,1984.6050954055468,6,53.66863185999999,10.23648073
Frechen,1983.1599444170834,13,50.91358009,6.784113233
Anse,1972.3379085801705,8,45.92804108,4.702516303
Wilmslow,1964.6596596923093,8,53.32581188,-2.239439169
Liège,1959.5062840720425,21,50.631233841428575,5.5887294091071436
Trier,1958.1449080939592,14,49.7588627226087,6.640880468521739
Menen,1954.151723703845,11,50.79247803,3.154392816
Heilbronn,1947.5216877036196,19,49.170227440384615,9.176461141692307
Talavera de la Reina,1944.1767875016294,18,39.95638658,-4.80601686
Créteil,1944.1707626500806,15,48.783770690000004,2.454732837
Mairena del Aljarafe,1938.0968775240492,10,37.33846012,-6.067255066
Villeurbanne,1937.1049184375945,15,45.77103734,4.889034143
Noisy-le-Grand,1932.3558257481684,17,48.8362555,2.564703166
Dundee,1931.7611327956083,11,56.5058544275,-3.025529342875
Widnes,1928.452093833593,16,53.3775874,-2.740145055
Angoulême,1922.9313059879203,14,45.64712833,0.1500816013
Blackpool,1920.40389853371,16,53.81937191233333,-3.0212172791
Marbella,1909.688655837439,16,36.513004088,-4.918056289800001
Aberdare,1906.2420021496453,15,51.76865388,-3.514166834
Erding,1896.245752684723,15,48.30624641,11.91419491
Iserlohn,1894.4926537719502,9,51.41012835333333,7.656358682666666
Stuhr,1888.7516409152731,16,52.99790644,8.72636141
Erkelenz,1886.0319941052373,15,51.06768177,6.338990035
Wiedemar,1885.1132282884082,6,51.51316548,12.36177991
Unna,1884.7717176504195,11,51.54143288375,7.7273530228750005
Pirton,1881.607686244454,11,51.97089846,-0.3213103356
Cornellà de Llobregat,1878.1719844624765,9,41.35530941,2.076669723
Calais,1874.5841310523622,15,50.9503085,1.875995684
Newport,1866.8054336743376,10,51.53912397105263,-2.899078350473684
Benidorm,1865.731112806491,12,38.56067347,-0.1447721428
Cieza,1863.4938291329556,9,38.27373194,-1.470852888
Pontypridd,1857.7293163710972,7,51.61750838,-3.348821715
Haverhill,1854.158909049021,11,50.928798095,-8.48913710355
Cagnes-sur-Mer,1849.1135055849375,13,43.67201009,7.152488564
Minster on Sea,1841.4583883848197,10,51.39698717000001,0.8410579121
Châtellerault,1840.6128031983615,13,46.81738057,0.5815553042
Pau,1838.0456739149188,13,43.3198942,-0.3502121493
Didcot,1833.9441709676844,7,51.58231022,-1.246031848
Puteaux,1825.680277009866,10,48.88354734,2.238800875
South Benfleet,1819.8608299674725,14,51.55937830999999,0.5864351969
Goussainville,1816.5068091528774,9,49.040436639999996,2.456832122
Beringen,1808.6280826976665,10,51.06995319263158,5.251156320789474
Boadilla del Monte,1805.0110083166635,11,40.41126976499999,-3.8749018351249997
Beaune,1802.220773822321,9,47.0094592,4.883532435
Cádiz,1792.166982101768,8,36.511440015,-6.2728835431666665
West Bridgford,1783.9517799496218,13,52.93282147,-1.128626194
Zweibrücken,1781.8010901886985,9,49.24648362000001,7.365912097
Westoning,1781.7867229332796,3,52.02709995,-0.45269571159999994
Oliva,1780.4434391891268,6,38.89670835,-0.1043537399
Mennecy,1780.2521818668004,4,48.56076568,2.42029858
Bruges,1775.5259315357482,10,50.24426260538461,2.6167804422923076
Torrejón de Ardoz,1771.7031101499313,14,40.46996274,-3.457840796
Żagań,1761.2077494227299,24,51.65669948,15.048939379999998
South Normanton,1756.6489682697788,11,53.11241138999999,-1.387810358
Heidelberg,1755.5543048294526,13,49.39951397294118,8.646326207941177
Nîmes,1752.1570787226808,14,43.83844887187501,4.3399078456875
Saint-Philbert-de-Grand-Lieu,1748.5739249562132,6,47.04071629,-1.641354924
Gloucester,1745.7023357873463,14,51.49298551333334,-4.7330072038148145
Pomponne,1745.093828680578,9,48.88198097,2.702654673
Regensburg,1744.659902122892,10,49.008633335,12.118863445
Lünen,1744.0213515126113,14,51.60560598434782,7.481752593521739
Großenhain,1743.1528782531832,7,51.2967595,13.63286007
Wuppertal,1740.9746865053414,14,51.242488637368425,7.102988610526316
Villanueva y Geltrú,1739.9266786096487,11,41.237116910000005,1.705084688
Bréauté,1738.4645390246408,6,49.65254242,0.3996496476
Bruchsal,1738.2122639316353,7,49.10354606,8.600319895
Lemgo,1736.5718059653768,14,52.033719569999995,8.90190843
Gijón,1735.8352687431864,15,43.52573469611111,-5.692664050444444
Hayes,1730.1462033706616,8,51.51829542692308,-0.41298959075384617
Lutherstadt Wittenberg,1729.5830957791625,6,51.87321126,12.60400794
Tudela,1726.9382865466137,6,42.14527525,-1.525384731
Maidenhead,1726.44584704442,11,51.51876851,-0.7406173897
Dole,1723.76724370702,13,47.08167141,5.476257955
Espinardo,1721.731046743078,6,38.02742801,-1.157136604
Algeciras,1720.7118613717284,13,36.128457640952384,-5.464237267
Mons,1719.7866692481866,10,50.48603456352941,3.970678485647059
Etterbeek,1717.9376446952845,12,50.83292586999999,4.394503598
Amesbury,1716.7026888365497,6,51.17460397999999,-1.761690775
Yecla,1712.8435285008584,10,38.6439043,-1.169653792
Harpenden,1712.679991863454,3,51.81717030000001,-0.3581033881
Waregem,1710.9503474881508,6,50.882271152,3.3769085924
Hyde,1708.4801787826552,13,53.45167578,-2.040023331
Macclesfield,1705.0379540389354,13,37.220813549090906,23.492767206363634
Stourbridge,1703.5928438817225,9,52.45246220999999,-2.156013284
Roche,1699.2198838733827,12,45.615157178749996,4.266118187125
Bury,1699.1794757601883,9,53.607482888571425,-2.295096360428571
Ennetières-en-Weppes,1696.2176088794017,6,50.62058862,2.950553669
Le Loroux-Bottereau,1692.8231846836331,8,47.22576667,-1.295684559
Rubery,1691.5320967585096,9,52.38214722000001,-2.00372915
Walsall,1691.0583811162435,15,52.60687304173913,-1.9818323085652174
Darmstadt,1688.8578871113998,9,49.877972213571425,8.65046130357143
Edgware,1688.6231464043713,23,51.59850094714286,-0.26453612228571427
Kleve,1688.3430919165025,11,51.80295582,6.124875556
Linares,1686.932406301944,10,38.09720603,-3.641732926
Paisley,1684.9853566119154,12,55.81839054999999,-4.444828392
Earley,1684.3155602211957,10,51.43950082,-0.9256296223999999
Peterlee,1682.0574327915065,8,54.77324365,-1.338323161
Malay-le-Grand,1673.6303907498368,8,48.19706862999999,3.289053618
Es Pont d'Inca,1669.8242407476941,7,39.62375726,2.728554461
Ypres,1665.3023700466774,9,50.84817320083333,2.8418749085
Banbury,1658.9345324838926,4,52.06018086,-1.340750099
Castillo de Viñuelas,1654.622613297581,11,40.55287427,-3.767395151
Amposta,1651.4436775423208,9,40.67689271,0.6373682992
Sutton,1651.2367315457175,13,51.35754067999999,-0.19579568014999998
Rüsselsheim am Main,1649.7372969762896,12,49.9826882,8.449663949
Orly,1647.771270986929,7,48.74608557,2.405050959
Ceuta,1645.2598200298476,9,35.88917558461538,-5.331346018076923
La Línea de la Concepción,1641.5506595683285,7,36.18225236,-5.350750779
Can Fosalba,1639.9660121160089,9,41.54909842,1.853994735
Halifax,1639.5030476858751,13,53.738499540588236,-1.8692543030588233
Villena,1635.9037839136267,5,38.63168798,-0.8635861483
Hagley,1634.9656203839509,6,52.40965717000001,-2.114237753
Nauen,1630.9118438106786,8,52.613370800000006,12.82112302
Darlington,1630.8651610991228,10,54.54410237125,-1.5681268975
Lorient,1628.891600628977,7,47.74878939,-3.376335242
Mildenau,1625.3939743507008,7,50.57672023,13.05368184
Schwandorf,1625.3014714953588,9,49.31757984,12.08837945
Coslada,1607.6736439334911,11,40.428897464705884,-3.5627260237058826
Villingen-Schwenningen,1597.9777489831524,7,48.05646016461538,8.517930298307691
Romford,1597.500742385935,13,51.58724840285714,0.19560101225714285
Rueil-Malmaison,1597.4294129855289,13,48.869442740000004,2.177571558
Kaiserslautern,1591.1003080547866,14,49.42986630210526,7.771842507736842
Scarborough,1588.4226537814532,10,54.22052604,-0.4556853653
Gaggenau,1587.0416657114865,3,48.81753423,8.344769736
Grünheide (Mark),1583.986772533569,8,52.41431407,13.86579049
Rainham,1570.9505967262812,10,51.44063805,0.404040534
Basildon,1566.4441568442362,10,51.55768379294118,0.46285663716470593
Walton-le-Dale,1562.6964578736024,10,53.74272528,-2.624839046
Lörrach,1561.1336453585222,8,47.620393112,7.6672938111999995
Jouy-le-Moutier,1560.520380895768,6,49.01096777,2.033425713
Asse,1557.7559829424308,10,50.89463905705882,4.266607533176471
Bishop Auckland,1556.0401171290125,7,54.65298800000001,-1.710472833
Bornheim,1553.4416532037878,9,50.76822656,6.954937988999999
Sint-Niklaas,1549.233813230224,11,51.16684385947369,4.1131188022105265
Stanley,1548.7522608473491,6,54.87160404,-1.703082279
Mouscron,1548.468527626943,12,50.735928332499995,3.2418393052999996
Tarragona,1539.55195352132,11,41.1280299223077,1.2487588790769233
Blanquefort,1538.9324341120341,5,44.94934568,-0.6187142919
La Louvière,1534.575340707455,13,50.46866791157895,4.173293518842105
Colmar,1534.546621341104,16,48.10975386,7.38462502
Molins de Rei,1533.238434827396,7,41.42075923,2.037954316
Grasse,1528.7352209795797,11,43.65437597,6.930507884
Calatayud,1527.5930748602293,9,41.35510329,-1.6275135359999997
Chambéry,1523.2086529237608,7,45.57065631,5.915071158
Coatbridge,1521.6031051056889,6,55.86977981,-4.037272883
Ivry-sur-Seine,1519.341742329343,17,48.81227241,2.387726901
Lohne (Oldenburg),1519.2758157029157,8,52.661501269999995,8.231384272
Nancy,1517.7411240254964,14,48.68889227,6.178068283
Sarreguemines,1515.4767412974318,9,49.105694299999996,7.118171278
Savigny-sur-Orge,1511.6977170260432,7,48.68416534,2.349049322
L'Isle-Jourdain,1510.827749352456,10,43.60069905999999,1.078185034
Chalon-sur-Saône,1508.8505991971992,13,46.75343777,4.828897407
Wernigerode,1506.7657140840765,10,51.843662890000004,10.79697174
Alcalá de Guadaíra,1505.8566928930277,11,37.29034196,-5.806239006
Rheinberg,1504.6443113846676,10,51.55599442,6.610059723
High Pittington,1501.2151388644288,9,54.75356005,-1.468963255
Fernelmont,1497.5789037505017,7,50.55392135,4.987219669
Geraardsbergen,1490.43692960735,3,50.780551956,3.9061549585999997
Stockton-on-Tees,1490.3819362927204,11,54.580311415833336,-1.3300769635833332
Sinsheim,1489.90058966705,10,49.238067410000006,8.87969714
Malgrat de Mar,1485.601439222651,7,41.65057529,2.746475482
Grevenbroich,1485.5290326778484,13,51.067212750526316,6.589273570368421
Catarroja,1484.4549314842566,12,39.3955345,-0.3962602117
Saint-Martin-d'Hères,1483.6294131116886,8,45.1762261,5.765063481
Quainton,1481.9123639983286,13,51.83327791,-0.7961132535
Figueres,1480.9639893034243,10,42.27066451,2.970667022
Corbeil-Essonnes,1480.112039865241,11,48.59864736,2.464387379
Arras,1478.0659773988057,10,50.28382847,2.740871123
Saint-Fargeau-Ponthierry,1474.1568843139069,6,48.52911032,2.540113264
Villafranca de los Barros,1472.2172536052767,5,38.5867935,-6.339230252
Lampertheim,1469.02097490802,8,49.61686694,8.468622215
Oudrenne,1468.4641054521958,5,49.36230688,6.274653564
Limoges,1458.6488299769328,10,45.851854485,1.26408982225
Belfort,1458.637464241497,5,47.64693805,6.845400564
Goslar,1458.24884911319,5,51.90840109,10.41260065
Dorsten,1455.9334781497378,13,51.71020603894737,6.990092541894738
Waunarlwydd,1455.824557417591,9,51.69241673,-3.971410184
Mozé-sur-Louet,1453.4642702890183,5,47.37586014000001,-0.5378335915
Kassel,1453.1964654602466,9,51.307116579375,9.474218033625
Burriana,1453.0224368667139,10,39.88992388,-0.074495578
Saint-Jouin-Bruneval,1448.6772783351332,4,49.63793115,0.23618729
Cirencester,1447.8405914240507,9,51.7237815,-1.8809649830000001
Plourin-lès-Morlaix,1440.3310169929152,9,48.55666043,-3.824909261
Höxter,1438.6393860245792,9,51.78645245,9.344595951
La Seu d'Urgell,1436.5502094083736,2,42.35593865,1.467578646
Murcia,1434.7147806022517,13,37.970968257222225,-1.1241554027222223
Thornaby,1431.9247720106255,9,54.53455693,-1.297504388
Westerlo,1430.3511331289264,4,51.10639103,4.881847751
Goole,1427.0815579986245,9,53.70645703,-0.9194496613
Monheim am Rhein,1426.5573115619704,9,51.09618489,6.892344465
Gifhorn,1426.444049961128,13,52.50604315,10.5235786
Beveren,1420.8506147060314,11,51.27492708666666,4.233285275999999
Cheltenham,1420.3728507435799,11,51.90322366,-2.126776565
Moosburg an der Isar,1418.1222899899874,7,48.47671042,11.93053009
Warboys,1416.4303959121034,9,52.37115244,-0.2290430135
Chelmsford,1406.9397612560697,11,50.56666963875,-8.4850693095
Tres Cantos,1405.9214877245665,6,40.61029677,-3.729419954
Neubrandenburg,1404.7211360121391,12,53.55450750647059,13.259940735294117
La Guardia de Jaén,1404.3802532025813,8,37.76553167,-3.70369408
Hennigsdorf,1400.060461761523,6,52.63169433000001,13.20220112
Leer (Ostfriesland),1397.5903185631987,10,53.24355323000001,7.461184636
Leganés,1394.2264542194487,13,40.33160433470588,-3.7619611288823527
Bromley,1393.936287503335,14,51.384831219999995,0.026383392436666667
Halle (Saale),1393.5178178372535,9,51.45208473428571,11.994349227142857
Hereford,1392.9885349859346,14,52.033893796,-2.8382310292999997
Hockenheim,1390.1511470932205,8,49.32798151,8.530402535
Hove,1390.0210832467658,13,50.84213221,-0.18112490960000002
Gennevilliers,1389.9839155471782,5,48.93456013,2.293960726
Clacton-on-Sea,1385.6969719929705,7,51.79832724,1.156252262
Solihull,1384.6585776769464,11,52.42216074411765,-1.7437098723529414
Carlisle,1383.6428789481065,12,52.6845675475,-14.09216197015
Antibes,1380.2472898479532,10,43.594956263076924,7.10185933023077
Antony,1378.5459226238502,10,48.75002109,2.299055609
Schwerte,1377.3636629644204,9,51.43018661,7.576644561999999
Trappes,1377.1759453738175,5,48.77581657,1.994270462
Torredonjimeno,1375.9497221275576,4,37.79813355,-4.03685845
Völklingen,1375.4843744088198,5,49.22043386,6.802795357
Stowmarket,1375.340576531537,10,52.21336977,1.064557185
Wellingborough,1370.1184240210177,14,52.30438811999999,-0.6921742056999999
Frankfurt (Oder),1369.585947228878,6,52.34187006846154,14.460868014615384
Ettlingen,1367.928989972357,6,48.92727991,8.405874454
Neubiberg,1366.1437435897997,6,48.07843796,11.64339539
Bottrop,1365.7525149249523,12,51.53531341294117,6.927777520176471
El Paraíso,1364.25582251125,6,36.47025423,-5.029864593
Wick,1364.002884810467,7,51.40571809133333,-2.3156123207866663
Glières-Val-de-Borne,1363.6392584567152,7,46.03043394,6.412488564
Neumünster,1363.2784180961353,6,54.04662368,9.993442616
Silsden,1361.5925302182836,11,53.90672165,-1.958294389
Gießen,1360.9995884523921,7,50.57658738,8.720634451
Maisons-Alfort,1359.576840033015,7,48.80613274,2.438184222
Plasencia,1359.3661301904806,7,40.04042361,-6.102202982
Champigny-sur-Marne,1359.1817066925473,10,48.81733107,2.516953267
Issy-les-Moulineaux,1359.074215241908,9,48.82312921,2.264821256
Andover,1358.5168798380782,11,48.929786805333336,-20.06584133713333
Cuenca,1358.4059211291542,9,40.04935441,-2.1241103006666666
Kilmarnock,1358.2930188108035,6,55.644175453,-4.470384640600001
Havant,1357.711799272594,8,50.87791297,-0.9634086268
Kaufbeuren,1356.5319210800117,10,47.88016754,10.61634203
Schleswig,1352.698254008576,6,54.51977056,9.558870661
Algemesí,1352.3027010165501,4,39.21366546,-0.4292462477999999
Pinner,1352.1560384010902,13,51.59760535,-0.3844194939
Fleckney,1348.1191864450873,15,52.54752072,-1.056339403
Ourense,1347.7366828944462,15,42.3424691168421,-7.8666161530526315
Dos Hermanas,1342.707899934335,7,37.281998048888894,-5.953419117222222
Rodgau,1342.6945019596756,10,50.01267128,8.881694442
Savigny-le-Temple,1342.330252456918,6,48.58542329,2.563284426
Germering,1339.2344488445947,12,48.12900221,11.36026866
Borna,1331.0890209785584,7,51.1236235,12.49119075
Lérida,1327.1472776328835,7,41.626748001428574,0.6419938680714286
Castrop-Rauxel,1320.2664012629896,7,51.59353717727272,7.314223949545454
San Andrés del Rabanedo,1318.5663665723962,7,42.599072957000004,-5.6155066503999995
Wokingham,1318.2945346380284,6,51.41585242,-0.8698304130999999
Vilvoorde,1317.9528889429632,9,50.93013126,4.433805443
Accrington,1317.8525368565975,12,53.74874571,-2.366104093
Bergisch Gladbach,1316.0469612672282,10,50.970738357777776,7.181812333888889
Hauteroche,1315.4110648752885,8,46.65547519,5.580955217
Saint-Cloud,1314.360572559161,9,48.84255454,2.208760566
Arles,1313.37801765694,2,43.5999677,4.63339612
Stratford-upon-Avon,1313.2069767990304,6,52.17041274000001,-1.709307731
Bilzen,1311.9137699153237,10,50.87168009,5.533341219000001
Rinteln,1310.2851559997687,9,52.17482504,9.110810792
Méru,1308.518818953818,2,49.23290672,2.130784065
Castres,1307.8650180031043,6,43.62201795,2.258800905
La Roche-sur-Foron,1306.7123273297832,6,46.062499429999995,6.318997107
Louviers,1306.6440619607633,11,49.18596127,1.139267355
Vitry-sur-Seine,1304.6445355504488,12,48.788145,2.394605909
Comblain-au-Pont,1299.7678342625811,4,50.47569073,5.581761773
Valenciennes,1299.4664751633263,11,50.3419856,3.5224354120000005
Gosport,1295.6763840992458,8,50.80960797714285,-1.1693511240714285
Ravensburg,1295.280489525679,9,47.76576038272727,9.618482859545455
Biberach an der Riß,1293.1008322276268,6,48.0911432,9.78869814
Esmery-Hallon,1291.3795012031069,6,49.75208325,3.019161139
Villenave-d'Ornon,1291.2309627479005,10,44.76211178,-0.5461206584
Bobigny,1290.7564167925734,13,48.90746319000001,2.4398787
Tübingen,1290.3568449076479,11,48.50354562473684,9.047373735631579
Letchworth Garden City,1287.1077427541443,9,51.97685231,-0.2223977237
Draguignan,1286.3500535785004,12,43.57404107,6.446492496
Desingy,1284.7803586527102,2,46.01975201,5.929658443
Toul,1282.819954364923,5,48.71419514,5.873414889
Coupvray,1282.5039526213518,9,48.86344651,2.796725574
Val-Suzon,1279.79154124992,4,47.39379799,4.95500538
Collado Villalba,1279.7301717608088,9,40.64121247,-3.9884418159999995
Eupen,1278.0869516238806,7,50.60363203,6.137547413
Llandybïe,1276.6595376262433,8,51.80512201,-3.9431529640000003
Ashford,1276.5779704979939,10,51.14305756857142,0.8828336205857144
Ilkley,1275.4948776453891,8,53.92793954,-1.8193287889999998
Hornchurch,1273.8149996964487,11,51.564727823571424,0.2192595552714286
Vétraz-Monthoux,1273.596007717587,7,46.18924654,6.2489296229999995
Domérat,1272.4034870413645,6,46.331982,2.55482228
Park Gate,1271.2863148098622,10,50.8735173,-1.29937583
Valdemoro,1271.0072577335852,14,40.18415017,-3.659095868888889
Hemel Hempstead,1262.9410732712727,13,51.7502139525,-0.47426475390625006
Lanchester,1261.3526720577443,4,54.802589526666665,-1.7375966708333332
Lanark,1259.8245626215953,5,55.645855950000005,-3.779340949
Chiny,1256.9961960008866,4,49.71201501,5.373388986
Fléron,1256.9259707450644,4,50.617679545,5.682674832166667
Kidderminster,1255.5178507039636,11,52.38717748352941,-2.220943389352941
Worthing,1254.586714117166,13,50.85693175125001,-0.395732554125
Sermoise-sur-Loire,1254.2598856421864,12,46.96450008,3.175116836
Lure,1253.6825082787477,6,47.67760254,6.504008495
Cottenham,1252.7012251856565,11,52.2921189,0.07295315522
Amiens,1250.4208795691309,11,49.89027369230769,2.293363988153846
Laon,1250.2655124582063,11,49.55398923,3.593463846
South Croydon,1249.3460659540046,8,51.34295459,-0.07505288917
Cobatillas,1244.9710388033257,3,38.0674134,-1.103234884
Saint-Pierre-lès-Nemours,1244.906682546898,9,48.2749323,2.709304797
Neuville-sur-Sarthe,1243.6106779771894,9,48.05799334,0.2224537886
Ceutí,1243.1818824730524,6,38.08302909,-1.281925448
Clamart,1242.2500848067104,7,48.79663478,2.254491279
Exeter,1241.012398360426,14,50.71567488888889,-3.538643526111111
Vorselaar,1239.8779891295412,4,51.21769226,4.772932334
Newton Abbot,1239.277413984209,10,50.527839660000005,-3.629783023
Neumarkt in der Oberpfalz,1237.5472069926266,9,49.28249587,11.47292602
Gazost,1237.3799208086043,6,43.07311352,-0.02828783899
Mérignac,1235.4153276562256,17,44.83233401999999,-0.6818096132
Oldham,1234.448672223784,12,53.54235113571429,-2.066710242285714
Mercury,1232.6579706528214,7,45.67474692,6.369770708
Arrigorriaga,1231.2010882910677,6,43.20567786,-2.894398044
Saint-Planchers,1230.9860212259384,3,48.836985999999996,-1.5561854640000001
Arcueil,1230.8246977650545,5,48.80540696,2.334007801
Winsford,1227.7953054833158,6,53.17291216,-2.542814997
Rendsburg,1226.7418575981824,7,54.30230613,9.654852572
Tickhill,1225.6747700221727,9,53.44843283,-1.103069268
Ozoir-la-Ferrière,1222.5941406001602,7,48.76344722,2.679339976
Lieusaint,1220.7774082336875,8,48.625685610000005,2.549957876
Crewe,1220.3189909456369,8,53.09171247692308,-2.4193960914615387
Saint-Médard-en-Jalles,1219.495023491682,9,44.90585401,-0.7931434605
Wolfsburg,1219.120680178891,9,52.402009876875006,10.769763935625
Puurs,1217.5948303333523,6,51.06592635,4.305622447
Gauting,1217.0189995191672,8,48.06064682,11.35514954
Millery,1215.585087485302,8,45.644926309999995,4.784348954
Newry,1215.3124508719857,9,54.15824995,-6.364721334666666
Sèvremont,1214.9882912624516,2,46.78625018,-0.814036747
Bressolles,1213.8418344628135,3,46.57054068,3.279516119
Wezembeek-Oppem,1211.3814283805718,3,50.84341969,4.492246308
Villeneuve-d'Ascq,1207.9342851949473,7,50.63069031,3.147837754
Neustadt am Rübenberge,1203.3455303693645,7,52.55490328,9.464753311
Saint-Priest,1201.6082734062256,7,45.70176868,4.948933897
Dunfermline,1201.1107860276209,11,56.08499554857143,-3.4930497618571428
Boissise-la-Bertrand,1199.6487884465018,5,48.53505267,2.607189886
Bamberg,1198.762132266741,11,49.898424635,10.907936205
Kortrijk,1197.4361080235758,8,50.8154688,3.276507538
Hednesford,1197.1010711782733,8,52.71675309,-1.995197514
Castelnau-le-Lez,1196.1881229889386,8,43.63778329,3.9125113040000006
Saint Mellons,1193.6682669060733,7,51.53057016,-3.099495642
Kempten (Allgäu),1191.9470394250611,11,47.74151591375,10.31703371125
Tortosa,1189.1381855795253,10,40.83572116,0.5362483274363636
Pulheim,1188.710664394592,7,51.00008333,6.78429871
Blanes,1188.2058503524916,10,41.68891945,2.783080182
Newark-on-Trent,1187.3775646332228,8,53.07018923,-0.7804927374
Göppingen,1186.3386431988934,7,48.70117747375,9.64233066625
Stevenage,1184.5151991611917,8,51.90968042,-0.1998428338
Bartestree,1183.471051223806,3,52.07222178,-2.624546328
Schorndorf,1182.9104208403123,8,48.79859769,9.529662911
Soham,1177.349815175854,8,52.37088669,0.3528019689
Azuqueca de Henares,1176.7586954620454,14,40.556705,-3.262968257
Montesson,1176.0360972362662,8,48.91722474,2.139921288
Namur,1175.94146323043,10,50.455285106666665,4.8629644815
Saint-Raphaël,1175.7683973106539,5,43.45778983,6.847510140000001
Nueva Jarilla,1175.0778848171487,11,36.68548679,-5.952290985
Torrelavega,1174.743682669246,11,43.33700753,-4.040062941
Herent,1173.8736323993865,6,50.9125361,4.645681033
Heinsberg,1172.8919234935563,7,51.0540232,6.088685508
Guebwiller,1172.6272226073684,4,47.89714048,7.224131401
Blieskastel,1172.6118810068829,5,49.21503059,7.263683830000001
Sambreville,1171.3310682868896,6,50.44646456,4.62065093
Cergy,1166.4762807228142,8,49.03201403272727,2.045047035636364
Nantwich,1165.5229740631326,7,53.05402973,-2.5334632990000006
Montrouge,1164.6470791592992,8,48.81524365,2.317225811
Swinton,1161.3360173935744,9,53.512275807500004,-2.20042908475
Neu-Ulm,1161.0506125759607,13,48.380503778750004,10.056702225625001
Movera,1160.913586406985,6,41.63967272,-0.815234249
Aiseau-Presles,1160.8657176385223,5,50.40480641,4.576763174
Tournai,1160.798165872572,12,50.60310990391304,3.370574829347826
Lanester,1160.4677379220261,4,47.76725384,-3.3270430269999998
Andernach,1158.850645408435,5,50.43230404,7.371831523
Châlons-en-Champagne,1158.3396911419252,7,48.96436591,4.378602336
Colombes,1156.7773925810338,11,48.92274182,2.247061786
Urbanización Villanueva,1156.7068191345486,2,38.39550866,-0.5885414815
Laatzen,1156.058965195384,10,52.289208900000006,9.83975395
Savigny,1155.5719186524905,4,45.82008145,4.61355423
Caddington,1153.9089083312322,8,51.86156722,-0.4276466282
Palaiseau,1148.7654813486583,8,48.71479105,2.228704429
Baza,1147.9252734145482,5,37.41160112,-2.775542801
Cavertitz,1147.8631254810452,6,51.33891023,13.12216866
Aylesbury,1147.3242572519318,8,51.80517056,-0.8032049762
Kervignac,1147.299074656953,7,47.76524564000001,-3.242517464
Brenes,1146.3006371670383,6,37.55361107,-5.877163773
Dülmen,1145.074051459621,12,51.84721253,7.289211721000001
Saint-Maur-des-Fossés,1141.3287688183204,11,48.797474436,2.500223171
Llanelli,1140.699174979433,9,51.74243658909091,-4.1589247816363635
Bideford,1137.5856975743766,8,50.98708632,-4.333019993
South Elmsall,1136.8896795487306,3,53.61291909,-1.314020706
Greenford,1136.2656601000056,11,51.53865706,-0.3375296934
Maubeuge,1135.6694561609106,6,50.31189481,3.9896137689999995
Clermont-l'Hérault,1135.1593208753636,8,43.61379132,3.380650246
Sucy-en-Brie,1135.08626538847,3,48.76569893,2.533304974
Agen,1133.2175031388754,13,44.20326514,0.6249809413
Trowbridge,1131.6941703101381,11,51.32018415000001,-2.18245882
Guecho,1131.2934558808133,11,43.348548255789474,-3.008598049473684
Mollet del Vallès,1129.060462225965,12,41.54482433,2.212987255
Pinneberg,1128.8934318108966,11,53.6474618,9.792353111
Mechernich,1126.0964103059896,8,50.59125667,6.647776289
The Royal Town of Sutton Coldfield,1125.045175678724,7,52.5815595,-1.861768752
Saint-Désir,1124.7273968340278,7,49.13090338999999,0.2588038104
Tournefeuille,1122.6255695612028,8,43.57822085,1.335139957
Colfontaine,1120.8061228243832,5,50.4057139,3.8441433080000005
Bourneville-Sainte-Croix,1120.2810858536222,8,49.35426744,0.5331054699
Navalcarnero,1120.0271087747396,6,40.28870118,-4.014147697
Fayt-lez-Manage,1119.4609194082914,6,50.49342707,4.238163703
Sangerhausen,1118.808058905867,6,51.51759003,11.2505041
Eastleigh,1118.2818644092652,12,50.97182697,-1.324558572
Abbots Bromley,1113.6712502100254,7,52.77699928,-1.902598127
Filstroff,1112.956613405739,7,49.30889340000001,6.507550881
Eisenach,1111.4644811219914,3,50.989657449999996,10.30013006
Longridge,1110.3790917742347,8,53.88054073,-2.714746129
Bautzen,1109.4239075596415,6,51.19051417,14.41346503
Lens,1108.8927816869216,5,50.43590442,2.81996747
Papenburg,1106.6119584111696,7,53.05639424,7.402000533
Toddington,1104.8561678588185,12,51.93461687,-0.5194424808
Sedaví,1104.723997526603,6,39.40722781,-0.3660136494
Cambronne-lès-Clermont,1102.6937078292788,5,49.32070887,2.422428069
Wilhelmshaven,1102.361677190978,6,53.59292439,8.071158739
Oudenaarde,1100.891011059718,6,50.85348449,3.62104013
Plumergat,1100.5395073280856,8,47.69113757,-2.972216882
Bracknell,1099.3544765753,10,51.40512293,-0.7520218308
Monforte de Lemos,1098.1465232943315,4,42.52390455,-7.515421327
Aspull,1097.9098738541368,9,53.53924048999999,-2.585248242
Saint-Romain-en-Jarez,1096.0758536042886,5,45.53400673,4.601605089
Ottignies-Louvain-la-Neuve,1095.24701790833,8,50.6727621261111,4.603249386999999
Schönebeck (Elbe),1094.5322707569799,10,52.017118569999994,11.73687285
Barsinghausen,1094.0519506893102,5,52.32565236,9.480589508
Xanten,1093.2755145683993,7,51.67309624,6.433806139
La Navata,1090.5088798662077,4,40.60375804,-3.979539785
Retford,1090.4636186574896,8,53.32422495,-0.9036820917000001
Walton-on-Thames,1087.2305069516551,9,51.37629429,-0.4056755549
Wythenshawe,1085.881234102566,18,53.391974599444445,-2.267211749888889
Almendralejo,1084.9363482997096,4,38.70835739,-6.409800166
Castleford,1084.8630291803713,9,53.73227588,-1.342757632
Ciudad Rodrigo,1083.7031646009236,6,40.6348061,-6.496841691
Konstanz,1082.6879642001477,7,47.68514007,9.145702509
Péron,1082.6417763418365,4,46.2141145,5.957634121000001
Fillière,1082.4915258341257,6,45.96007136,6.162117101
Le Teich,1081.3616174751103,8,44.58464459,-1.046135938
Saint-Androny,1080.7139603729609,6,45.16141289,-0.6347037067
Ardon,1080.6173709646287,11,47.81442556999999,1.8771308200000003
Castelldefels,1079.2751049292117,9,41.27443164,1.9629406689999997
Mejorada del Campo,1078.5932403962856,6,40.40022285,-3.475096322
Koblenz,1077.8429456412791,7,50.36138054111111,7.539252669888889
Malmedy,1076.9114095590041,9,50.42818286,6.038248578
Ziesendorf,1076.1630893124563,5,54.02729733,12.08643992
Senden,1075.0911020690683,4,51.86114004,7.5006087290000005
Sainte-Foy-de-Peyrolières,1073.243850515678,8,43.51237597,1.1590091
Polígono Industrial Cachapets,1072.8694219132226,5,38.23702584,-0.8147191219
Groß-Gerau,1071.5860647791485,5,49.91103521,8.477280797
Sainte-Gemme-la-Plaine,1071.2677601705977,4,46.45960072,-1.17445035
Seseña Nuevo,1070.6362450388017,2,40.08968948,-3.6431112119999995
Chatham,1068.569517142016,12,51.360912511428566,0.5287437113571429
Cesson-Sévigné,1068.3156306450167,8,48.1203982,-1.597199444
Lüdenscheid,1068.2424280863825,7,51.196751400000004,7.628726773
Stadthagen,1067.6707242412333,4,52.30705529,9.217586242
Pinto,1066.5838039136388,5,40.24690462,-3.685632436
Nienburg/Weser,1065.9490775568615,8,52.63922408999999,9.233129079
Basauri,1063.902431326299,3,43.23160539,-2.8884576699999998
Schönefeld,1063.151783572196,8,52.36794067,13.50483292
Writtle,1063.0282129142197,6,51.75742808,0.4046344121
Offenburg,1062.89877160339,6,48.4985427375,7.939199825749999
Grimsby,1062.8805747566955,8,53.55856516,-0.06825817769
Caerphilly,1062.5576209506276,6,51.58978058,-3.212304396
Saint-Eusèbe,1061.6484043805658,4,46.74584888,4.480652033
Derramador,1059.7366220440501,9,38.1969764,-0.7179721089
Edewecht,1059.1648225290055,7,53.11761641,7.993515474
Sainte-Geneviève-des-Bois,1058.9125193983684,10,48.64023255,2.341132821
Bressuire,1057.9343914351725,5,46.85317099,-0.46597043069999994
Beersel,1056.0697533647417,7,50.75119113818182,4.31188436909091
Overath,1053.0432843008082,9,50.944952799999996,7.294956477000001
El Puerto de Santa María,1052.1711564376742,8,36.6314427,-6.233522578
Avilés,1052.0776842831892,10,43.55143383,-5.9165625256
Stralsund,1051.1017560332602,5,54.30225128,13.05046744
Christchurch,1050.2460539704584,12,50.77325099,-1.75873222
Mansfield Woodhouse,1049.7708847658018,10,53.17119886,-1.204918845
Pessac,1047.2091039461927,8,44.79164609,-0.6765747057
Cabezo de Torres,1046.6220298525625,6,38.03873296,-1.133453795
Oberursel (Taunus),1045.9993899165736,9,50.20928006,8.55465025
Les Hauts-de-Chée,1045.015844779633,4,48.77692439,5.170317453
Lingolsheim,1044.7705578456091,5,48.5553077,7.681813992
Blackburn,1044.7681154647926,15,53.760278985,-2.4958672425
Ober-Olm,1043.9308822983623,3,49.92360630000001,8.150894593
Nidderau,1040.1209127832094,8,50.24432987,8.895442522
Yeovil,1039.8248493740202,8,50.95931944,-2.63238626
Leighton Buzzard,1039.0535167393655,11,51.90499238,-0.6688699345
Lokeren,1038.8036439719822,7,51.11335945,3.9613870440000003
Rastatt,1038.162208456234,8,48.86295795,8.184932591
Wervik,1038.1194297895208,8,50.81013014,3.056514984
Hann. Münden,1036.8287482106891,7,51.43048467,9.678609504
Kiel,1035.3903596591088,9,54.32755696500001,10.1230763575
Almazora,1035.0550497045078,9,39.95136164,-0.06815009378
Fontenay-sous-Bois,1034.182769482617,8,48.85119126000001,2.474030392
Santiago de Compostela,1034.0674810954263,8,42.890920746666666,-8.524178058
Játiva,1032.572909402978,13,38.99465805,-0.5284541903
Cusset,1032.3510832952447,3,46.13899992,3.518416972
Le Perreux-sur-Marne,1031.5412994949797,4,48.84235629,2.503979804
Mortagne,1029.9995715796615,3,48.22277041,6.698240294
Runcorn,1029.338635319472,6,53.32403318,-2.689730381
Rickmansworth,1026.589588685101,7,51.65209623,-0.486273117
Andoáin,1026.5127067209028,5,43.21603456,-2.013244977
Pfungstadt,1025.0513586362663,5,49.799943330000005,8.588401204
Dartford,1024.8765892912836,8,51.45058268,0.21275596590000004
Viry-Châtillon,1024.265377177896,4,48.6693933,2.373354556
Camberley,1023.8253474787016,2,51.3399106,-0.7383932785
Evere,1023.1633555063088,9,50.86992785,4.408425828
Risca,1022.6509786802758,4,51.64734817,-3.123605261
West Bromwich,1022.6165650159635,8,52.53245099,-1.980538652
Ratingen,1021.31659314003,10,51.34136853428571,6.861316169571428
Melilla,1017.510969557059,7,35.279913484,-2.9443394522
Asnières-sur-Seine,1017.2284242992325,11,48.91585667,2.287912388
Bad Oldesloe,1015.7197330109893,5,53.81235718,10.34882165
Gütersloh,1015.6802983579718,9,51.90038488666667,8.393622877833332
Seelze,1015.1931521507933,7,52.38591828,9.574626596
Emsdetten,1012.6834791213232,11,52.17343441,7.523168519
Buxton,1012.244908125668,8,53.2254053,-1.8561727650000002
Lambersart,1011.1537801038,6,50.65181852,3.025779357
Stocksbridge,1010.9812467115,6,53.48793503,-1.698339602
Chatonnay,1009.2984396018142,8,45.49210517,5.134981059
Tienen,1006.8845130719279,5,50.81186284,4.941965951
Neu Wulmstorf,1006.7279455469674,4,53.43151563,9.795750284
Brétigny-sur-Orge,1006.5238804735047,6,48.60410325,2.315521833
Limoux,1006.2889304177593,5,43.04859490999999,2.179924269
Bishop's Stortford,1005.420306385722,5,51.89031666,0.1516042392
Auderghem,1003.9654482535656,8,50.81014007,4.438397549
Earl Shilton,1003.1819373049345,5,52.58248418,-1.279357432
Frencq,999.8028894007855,8,50.54980787,1.695713998
Gaillac,996.9361172507303,6,43.88116123,1.930004504
Cramlington,996.3896954351899,5,55.07942936,-1.5912639440000003
Southall,995.5793729040279,8,51.50520130636363,-0.3709881196636364
Meinerzhagen,994.7542428981142,3,51.11005344,7.718301065000001
Cambrils,994.7517781201927,6,41.0825352,1.042313004
Genk,993.7319052502295,6,50.96720059,5.494825406
Binisalem,993.5756632603834,2,39.68451309,2.8568245180000003
Ifs,993.4790507638705,10,49.1445045,-0.3522900083
Tewkesbury,992.3032776068087,3,52.01211451,-2.114773371
Beckum,991.9913620204737,6,51.76066646,8.046747005
Utrera,991.84410514553,11,37.07687358,-5.762407297
Cwmbran,991.7575867922045,10,51.64705732,-3.02608356
Carquefou,991.6092301053783,8,47.29995839,-1.4500938
Emmerich am Rhein,990.5633443499189,6,51.85008021,6.248696508
Florange,988.9627709211907,5,49.32797506,6.122961665000001
Taden,987.6935741961871,11,48.44272355,-2.053959568
Chaumont-en-Vexin,987.3294840575327,6,49.24313963,1.887748598
Downpatrick,987.2278006502455,5,54.33578926,-5.712633911
Le Gua,987.0036309072067,8,45.70549828,-0.8996101256
Dinslaken,986.1638643719741,8,51.560845096363636,6.739574779454545
Siegburg,984.4273149556111,5,50.80529506,7.237701031
Frome,983.9817518211759,6,51.22044589,-2.343222924
Saint-Martin-de-Fontenay,982.2536606693731,2,49.1014562,-0.37394628710000005
Löhne,981.5765346089606,8,52.1991677,8.722318964
Houthalen-Helchteren,979.6889700928031,5,51.04527566,5.408406455
Osnabrück,979.0478538161274,4,52.283630611111114,8.080199034444444
Rhauderfehn,977.8219783130284,3,53.12279575,7.547628649
Bingley,976.4549454998262,11,53.85593992,-1.8317011009999997
Rotenburg (Wümme),975.3235573481273,5,53.11488028,9.367957278
Villarreal,974.3265054528304,11,39.93313198,-0.1287584866
Gerona,972.1633047691847,5,41.9726617675,2.828574205625
Gera,972.0730110320779,6,50.87520721,12.039156949999999
Shirley,971.7440713628273,6,49.818096772222226,-17.613884743888892
Saint-Mars-d'Outillé,971.4390560297635,7,47.84874745,0.2927455809
Tingley,970.8834643744361,11,53.72439455,-1.517863892
Guardias Viejas,970.5303515300036,7,36.7439045,-2.801169821
Shaw,969.8280996166905,7,53.57713024,-2.100384017
Blaengarw,968.5915724132341,7,51.54711598,-3.591975244
Halle,965.6750799689638,8,50.721551080000005,4.2332832905
Challans,965.2003471507967,7,46.8367585,-1.893220631
Launton,964.971200921596,9,51.89832289,-1.149674228
Velbert,964.8612278666626,11,51.33378234846153,7.080020279846154
Wörth am Rhein,964.7538318434549,7,49.03465062,8.186512467
Meaux,963.974907402314,8,48.941513,2.892360726
Sant Andreu de la Barca,962.7208875861837,10,41.4512666,1.964005133
Riemst,962.5270589445445,8,50.80538177,5.592095332
Vienne,962.0374469052919,7,45.54766767,4.906262503
Coria del Río,961.5875020169619,7,37.24703506,-6.035262648
Rothley,960.9330624872152,7,52.65630656,-0.9855789377
West Bergholt,958.220996700489,5,51.93217418,0.7919371856
Syke,957.8199296515618,6,52.91004027,8.846252684
Dehesa de Campoamor,957.8187739493668,7,37.92930781,-0.762501389
Troyes,957.6446705568035,7,48.29677828,4.078518553
Kensworth,957.1921802279015,7,51.86378375,-0.5483239166
Argentona,956.7374702002227,4,41.56199761,2.39171252
Castilleja de la Cuesta,956.2600525577467,4,37.38577369,-6.055670584
Würselen,955.2529400551591,7,50.82716088,6.15060683
Hechingen,952.6252760017876,7,48.35236291,8.976393414
Kehl,952.0178711895934,6,48.57114296,7.849318262
Livingston,951.3335024306624,8,53.14338903181818,-16.401028665
Loughborough,950.6515744675603,7,52.76523058,-1.226790536
Bourgoin-Jallieu,950.495577818831,5,45.5639512,5.295290379
Pollionnay,950.1460758020822,5,45.75947664,4.684500358
Sevran,948.2812215772632,11,48.93867852,2.530645356
Anglet,948.2724893094266,12,43.49106396,-1.515467854
Wingene,948.0434986464679,5,51.05948991,3.260032408
Zafra,947.6687986926619,4,38.4369174,-6.45058143
Antequera,946.4398134703553,5,37.03252911,-4.575149842
Amorebieta-Echano,946.4299273083093,8,43.22648065,-2.72640638
Lanaken,946.1596158051984,4,50.88892561,5.638066856
Kornwestheim,945.640830418069,7,48.86629098,9.186536226
Messingham,945.4700461264375,6,53.58759021,-0.7525952938
Ware,943.6338306630621,4,51.82550215,-0.008301509931
Rubí,942.7205491774306,15,41.50150007,2.015051851
Osny,942.1832135028578,5,49.0679318,2.063264554
Pertuis,941.3279149481543,5,43.70961551,5.61158612
Grantham,939.2799438181963,7,52.91315494,-0.6311956036
Landen,938.5555837818608,6,49.11956877285714,-7.700746461142855
Palafrugell,938.5485218728606,4,41.91634664,3.164277149
Kempen,938.4886519671185,7,51.37844714,6.437545767999999
Markkleeberg,938.0109977139693,9,51.2666769,12.38669258
Navenby,937.8754552883797,7,53.10972529,-0.5728275878
Jijona,937.8189012077248,3,38.54747486,-0.4904393208
Grimma,936.3120278176696,9,51.22939752,12.75766845
Churchdown,935.6249743526593,7,51.85743492999999,-2.16211413
Ibbenbüren,934.6992666231112,5,52.2777519,7.708071472
Cherbourg-en-Cotentin,933.9358451552135,6,49.630395959999994,-1.5667715063333334
Horwich,933.1942193792124,8,53.60111378,-2.537925186
Pernes-les-Fontaines,931.6170990892088,5,43.990122070000005,5.08843851
Sevilla la Nueva,930.2842194311502,5,40.35790759,-4.090462063
Lisburn,927.2545805716338,6,54.54403236,-6.152880043
Sestao,927.0273367347048,9,43.30827506,-2.999129108
North Shields,926.110695702152,9,55.0104505,-1.4677119200000002
Laplume,925.792412497638,5,44.14028275,0.538741855
Leonberg,924.9542621201523,6,48.79086749,9.007051768
Straubing,924.2255673119352,6,48.88077995,12.57373851
Ath,924.2190663775136,8,50.65258368,3.8117780270000003
Holmfirth,924.0406415821374,5,53.56704468,-1.8175647860000002
Val d'Arry,921.4761207712792,4,49.10340822,-0.509309627
Noyal-Châtillon-sur-Seiche,921.3926840228318,4,48.01657833,-1.644223224
Schwabach,920.7388091050183,7,49.31302748000001,11.002371029999999
Schwäbisch Hall,920.290681504932,7,49.1106777,9.76009782
Longages,919.9098945170718,3,43.36082231,1.276488932
Almansa,919.6040072514003,10,38.84116422,-1.09038558
Landau in der Pfalz,916.8256446349382,7,49.19514718,8.099808066
Haguenau,916.3360143058544,7,48.832289,7.820469101
Brierley Hill,915.6699042915516,4,52.4828449,-2.122216516
Lauf an der Pegnitz,914.6562167834775,8,49.52606276,11.27175725
Haltern am See,913.521750784155,5,51.75258399,7.185895456
Hénin-Beaumont,910.4477420251688,7,50.409466949999995,2.959453468
Herford,910.3996810969797,6,52.12505352545454,8.674063350090908
Vaux-le-Pénil,907.9368304042054,3,48.52274349,2.67830311
Osterholz-Scharmbeck,907.8816629678962,12,53.255639509999995,8.792402334
Poissy,907.4178796058932,7,48.92347587,2.027401857
Woluwe-Saint-Pierre,907.1234652269503,7,50.83113751,4.443066493
Cumbernauld,906.5514904600509,6,55.94079417,-3.9742334140000004
Andlau,906.5424352877212,6,48.39605285999999,7.411955007
Armilla,906.4695058037136,8,37.14797868,-3.619283524
Corringham,905.271236386534,4,51.520762389999994,0.4493709379
Oldenburg,904.5765609806912,6,53.15358500666667,8.210530521499999
Cranwell Village,903.9099674540646,10,52.95597023999999,-0.3717699695
Inverurie,903.3273282295505,5,57.29209665,-2.443304726
Fécamp,902.2206024267408,5,49.73673259,0.3972531114
Oosterzele,902.1432006922315,4,50.93880379,3.797169174
Backnang,900.7690586743735,6,48.94532263,9.438745405
Beverley,899.623319824519,7,53.85953840999999,-0.439639537
Castro Urdiales,898.798200288999,4,43.35671538,-3.244279562
Avignon,898.6120620835394,12,43.93835341466667,4.832652888866666
Wednesbury,898.3562961435008,10,52.56046972,-2.019075828
Rheinbach,897.5355069251395,5,50.61553766,6.950113687
Schwanewede,897.2995753323772,5,53.25037843,8.585978110000001
Woking,896.9528448263852,7,51.31044660090909,-0.5501161409181818
Moncel-lès-Lunéville,896.4334456418848,8,48.58196257,6.535496769
Meudon,895.9467026525623,8,48.80444694846153,2.227741467307692
Long Eaton,894.995314161953,8,52.89738371,-1.280570079
Malle,894.5769830479159,4,51.29355543,4.713225688
Ajaccio,894.3531543563149,5,41.933295130000005,8.6959232084
Puerto de Sagunto,893.813338568892,5,39.65811702,-0.2309416578
Mislata,892.9073848715968,4,39.47576851,-0.4206130067
Heidenheim an der Brenz,891.2619327862651,6,48.73041875,10.19348462
Buckingham,889.8374394699619,6,47.37344391909091,-15.65786478670909
Cehegín,889.1449215162926,4,38.02337479,-1.772908002
Carpentras,888.2917132373743,7,44.05945149,5.061388913999999
Étoile-sur-Rhône,887.9460845751563,5,44.83299015,4.890333765
Irún,886.8253490525834,4,43.322080660000005,-1.783458824
Feltham,886.1485486983107,6,51.442363785714285,-0.40966205317142856
Gonesse,885.6662533069087,7,48.98550893,2.45549956
Brigstock,883.6417466658941,8,52.41280808,-0.6545648799
Zwevegem,882.9365345021012,5,50.80334980111111,3.362100315
Alcira,882.1520479599424,7,39.14972890999999,-0.42202985809999993
Sant Joan Despí,881.6161510331747,7,41.366115,2.055297559
Oostkamp,881.026908295004,5,51.11930676000001,3.2302884720000002
Destelbergen,880.6111224326562,9,51.04411972,3.8093070700000005
Hucknall,879.2850309501265,11,53.05912633,-1.199891531
Eitorf,878.9908494522829,3,50.76469914,7.452250129
Soumagne,877.007385361788,8,50.622341106666674,5.733327844222223
Salzgitter,876.9311407830199,7,52.15911964666667,10.406719636666665
Montornès del Vallès,876.6176998273238,5,41.54480750999999,2.2657933150000003
Le Mans,876.5332176977215,14,47.98504261,0.2072297052
Gavà,875.5790945882895,6,41.29455784,1.983724677
Azucaica,874.5829817480146,7,39.89152739,-3.983739247
Ermont,874.4829011623593,8,48.987954099999996,2.256665789
Wemmel,874.3696766970639,3,50.90962307,4.309408999
Dieppe,874.0600496443257,7,49.9218574,1.086486062
Gagny,870.7280118509585,4,48.88174038,2.545639585
Sanary-sur-Mer,869.6731950943018,4,43.13881795,5.795735561
Bergheim,869.6581194852898,4,50.97068678428571,6.641324791714285
Saulx-les-Chartreux,869.2633874447098,9,48.68776779,2.282054409
Polignac,866.8899647333994,7,45.05652533,3.864626656
Garges-lès-Gonesse,866.6947517857113,8,48.97045893,2.40456505
Colmenarejo,866.4430512912998,3,40.5376126,-4.018983038
Droitwich Spa,864.6323437084818,6,52.2732291,-2.153352705
Skipton,864.6126283104609,8,54.06100393,-2.092456351
Hatfield,863.2650567325974,5,51.76846784,-0.2409410176
Ávila,863.1128134266646,6,40.63784885818182,-4.667636890181818
Harelbeke,862.1377718454462,3,50.84346324999999,3.317618455
Lebrija,861.5671807924953,6,36.93946975,-6.061443743
Isernhagen,861.3588625153651,3,52.45485142,9.852144515
Palma del Río,859.8821462545028,11,37.70499074,-5.235301845000001
Forchheim,859.8745125037836,10,49.71994776,11.06361931
Royal Tunbridge Wells,859.0044384163672,9,51.14640189,0.28133669224999996
Voiron,858.332396445011,10,45.36985529,5.598231625
Joinville-le-Pont,857.9536079674764,5,48.81957389,2.470812141
Hoogstraten,857.5361386030042,6,51.46608358,4.776171716
Brasschaat,856.9285179784656,7,51.30966796,4.500507733
Villeveyrac,856.7440556601238,9,43.50632932,3.6352707189999998
Royal Wootton Bassett,855.9737328872683,6,51.51186099,-1.811647832
Alès,855.4056600352583,11,44.12512264,4.088467449
Hoyerswerda,855.2932977756733,6,51.42429874,14.21241658
Worms,854.9465976678273,11,49.62766495533333,8.360273907933333
Elne,854.362198669113,10,42.61387924,2.964063267
Raeren,854.2268383127748,2,50.65631294,6.131559351
Sainte-Agnés,853.8198545891078,5,45.23077677,5.947766046
Saint-Symphorien-d'Ozon,853.0221709888801,5,45.62226678,4.846318755
Bad Vilbel,852.5814828603651,9,50.19128395,8.74822747
Pfullingen,851.2213569221959,7,48.45226087,9.220819794
Lossatal,850.9901792154031,7,51.38811771,12.80256589
Wegberg,850.9310910468936,5,51.14279861,6.249703328
Loos,850.7937931634514,6,50.60881527,3.020055618
Woippy,850.5476665135928,8,49.16636361,6.137769335
Montrond,850.4175604135102,3,46.755621999999995,5.902859201999999
Bournemouth,849.5137623758773,9,50.78236240230769,-1.8940362123076921
Balen,849.4858530672916,2,51.16629372,5.189569334
Corby,849.3720913790314,8,52.47403757,-0.6911910818
Northolt,849.2819918684335,8,51.54406305,-0.38159456
Évry-Courcouronnes,847.2463781221433,9,48.628793407,2.4369632463
Burlada,846.6225652123342,4,42.82436308,-1.616470072
Coulsdon,844.061472156086,7,51.3017428,-0.1496059963
Narón,843.1506143645266,5,43.52463254,-8.153959054
Seillans,842.2892982877482,8,43.62885057,6.716792317
Redditch,842.0991597937344,9,52.29943157466667,-1.963317099666667
Soria,841.0224327086096,6,41.83128329,-2.774615318
Göttingen,840.7173632836503,5,51.53925821090909,9.878848684636365
Winterton,840.516688296297,8,53.64105546,-0.6198485082
Hartlepool,839.2611923938107,10,54.652579659999994,-1.211691864
Ziltendorf,838.3793076145852,8,52.36050523,14.918398560000002
Rödermark,838.0841675824811,9,49.9735942,8.806498583
Puchheim,837.7588523539607,4,48.16097965,11.3460994
Alloa,836.544060565495,8,56.10721714,-3.7344102
Massy,835.1318411196255,7,48.727516640000005,2.275226448
Charleville-Mézières,834.7071543649568,10,49.75902767,4.713050909
Euskirchen,834.6982758122203,9,50.63487388,6.817903491
Ortuella,832.9173002540476,6,43.30301193,-3.057270652
Pierrefitte-sur-Seine,832.2692159625748,6,48.961062059999996,2.363162965
Bourges,830.2166567363627,6,47.07485456999999,2.404451802
Chaumont,829.5408827424055,5,48.10354404,5.133180968
Lydiate,827.9924586980952,5,53.51625158,-2.935576941
Schelle,827.5459556462492,3,51.12258636,4.342914909
Totana,827.2957187136084,7,37.75422946,-1.515631904
Huy,826.4079590883147,6,50.5087758,5.222669763
Saint-Offenge,824.8413259781162,8,45.71134574,5.943290772
Troisdorf,823.6607511535399,7,50.82346362,7.161192053666667
Surgères,823.3471545826653,7,46.11662032,-0.7265611502
Furiani,822.8057643767646,6,42.66340186,9.418513786
Écully,822.6681585022948,8,45.78186948,4.772662451
Beckenham,822.2199578684649,8,51.40223416,-0.025877202840000002
Las Gabias,821.8374464714311,4,37.13271091,-3.696553514
Gap,821.2463698513554,5,44.56259432,6.068802521
La Bazoge,820.968416217977,2,48.068818779999994,0.1368259902
Burton Latimer,820.8490524590806,7,52.377585,-0.6855014062
Pantin,819.9994502292919,10,48.8985152,2.409168842
Arroyomolinos,819.9233710459556,6,40.28011473,-3.915809833
Idstein,819.3882639201361,7,50.232882,8.250125667
Lugo,819.1481612654374,10,42.98088292333333,-7.521374531333333
Le Plessis-Trévise,818.6796234803209,5,48.80579982,2.576430053
Herbignac,818.5416201232233,8,47.43255036,-2.331351128
Tourcoing,818.4374421897595,9,50.72579012,3.159665063
Uckfield,817.2222553749548,6,50.99265238,0.09848736423
Billinghay,817.1418864669824,6,53.11707530000001,-0.3284378636
Fréjus,816.971611177848,8,43.50124915,6.758216387
Leigh,816.6021960369845,7,53.49636806,-2.52047409
West Drayton,816.3263223515698,4,51.49746386,-0.4711802038
Clitheroe,816.0383108640793,4,53.92697434,-2.421374239
Greven,815.9451954390084,8,52.09514114,7.633802284
La Crau,813.9702851333673,5,43.16357703,6.0928880340000005
Alcalá la Real,813.3595474385273,6,37.45109255,-3.913722478
Olching,812.688621561495,8,48.20946244,11.34722342
Perillo,812.438131954246,5,43.33249761,-8.369401904
Memmingen,811.5789669346074,8,47.9788053,10.16301079
Rheinfelden (Baden),810.985234802798,4,47.58635843,7.769061213
Ostend,810.9163549658297,8,51.2098806,2.925805781
Sóller,810.8400922632467,7,39.77465367,2.70713879
La Gangosa,810.7514694375868,8,36.81192698,-2.662416419
Aldershot,810.5637283807513,4,51.256194459999996,-0.767730723
Calahonda,809.7130517173575,1,36.53751533,-4.7121487
Bastogne,808.8118539742002,6,50.01570622,5.761546733
Skelmersdale,808.2175834366395,12,53.55900174,-2.763541182
Torrelodones,807.9526312615607,6,40.576259,-3.929476444
Wattignies,807.7061721181524,5,50.58262904,3.0358922499999994
Leek,807.6767740216433,6,53.10772646,-1.986016749
Varel,807.2999965399504,1,53.38787696,8.116927504
Le Blanc-Mesnil,806.7646830217009,4,48.93958055,2.461094336
Warburg,802.6307043312312,8,51.51342191,9.092450799
Norton Canes,800.8517404907833,5,52.68331042,-2.019428024
Remseck am Neckar,800.3307600559432,6,48.87711753,9.265983296
Ollioules,800.2961354260785,6,43.13905466,5.854120172
Ibiza,799.1264994836384,6,38.93125802,1.415275692
Herzogenaurach,798.5330093898417,2,49.57067106,10.87886582
Clichy-sous-Bois,798.3616052968072,5,48.90801156,2.546269935
Guyancourt,797.5922810216423,4,48.77303627,2.075776876
Einbeck,797.5000506000191,5,51.82260662000001,9.888712394
Korntal-Münchingen,797.2711771066588,4,48.84809347,9.102052301
Saint-Germain-d'Esteuil,796.9333787734627,6,45.32924291,-0.9006847327999999
Aalter,796.6469204198887,4,51.085646733749996,3.47456273925
Banbridge,796.3306458801454,7,54.31989,-6.210451708
Tipton,792.6238203932758,5,52.53305691,-2.053090915
East Kilbride,792.2912964341182,9,55.758226501818186,-4.188929990818181
Morlanwelz,792.108810012749,2,50.43926512,4.250242489
Mitry-Mory,791.8094403255977,6,48.97984337,2.619195998
Liévin,790.9195444180582,4,50.42436233,2.772772599
Vannes,790.5802257971183,7,47.65963324,-2.757228862
Urbanización el Trigal,790.0907672343399,9,39.10657529,-1.8691978600000003
Eastbourne,789.8465097381572,6,50.79649385727273,0.2967632398363636
Los Camachos,789.7848608098797,4,37.67488223,-0.9251903645
Le Chesnay-Rocquencourt,789.2798987960963,5,48.82917813,2.119866536
Villanueva de Córdoba,789.0886589087158,5,38.27608776,-4.629748683
Ambarès-et-Lagrave,788.0847898155293,4,44.95565539,-0.5029878035
Grenade,787.995633912689,7,43.75588271,1.23437356
Lezoux,787.531978909432,5,45.81818332,3.399971704
Nürtingen,786.7407656708278,5,48.61941449,9.34047795
Saint-Pierre-de-Chandieu,786.1655369463172,9,45.651630649999994,4.990649105
Drancy,785.4878131843047,6,48.92346471,2.444618112
Ludwigsburg,785.3933359030893,8,48.91142392,9.248711826
Torcy,784.9922759885784,6,48.85385681,2.650711353
Millau,783.1314287214722,6,44.08990168,3.106309836
La Courneuve,782.8901459703424,7,48.93215665,2.399412501
Birkenhead,782.6649643364298,6,53.370113185,-3.0736026958
Lahr/Schwarzwald,782.0528388985804,6,48.33581942,7.871785123
Standish,781.8730198884527,2,53.58694497,-2.689945948
Vitré,778.3205360079883,4,48.13808143,-1.1897123000000003
Hambledon,778.2584589773962,9,50.90676188,-1.064713892
Bocholt,777.8940860217267,7,51.83737280333334,6.5819352276666665
Joux,775.8654437662174,6,45.91195805,4.413040283
Erith,775.1847105371946,6,51.47557276,0.1838400043
Whitley Bay,773.3042597877342,6,55.063424909999995,-1.500993205
Ploemeur,772.6824928333297,4,47.73243505,-3.442200929
Sitges,772.4541051516976,6,41.25668957,1.855038829
Moormerland,772.3753200719582,3,53.3221131,7.436765830000001
Motherwell,772.3026191621304,9,55.80923666,-3.942749844
Bensheim,771.5758182319071,8,49.69294853,8.623326523
Sailly-Lez-Lannoy,771.3431051619494,2,50.658061909999994,3.224942126
Bains-sur-Oust,771.3418172753642,7,47.69764144,-2.058078135
Ebbw Vale,771.0841905842443,7,51.79461121,-3.195302092
Sundern (Sauerland),770.8194292672404,6,51.31054269,8.005777648
Walcourt,770.2963163718733,6,50.29095424,4.451338476
Aranjuez,769.9745384470048,8,40.04999902,-3.587262227
Tabernes de la Valldigna,769.331238500543,7,39.08030537,-0.2547168346
Jurançon,768.8953211598161,3,43.26776576,-0.3988538589
Asson,768.379177018774,6,43.14188397,-0.24284361599999998
Claret,768.2175920529588,7,43.79487971999999,3.869217616
Orrell,766.9973435272503,8,53.52477394999999,-2.6968552239999997
Verrières-le-Buisson,766.4578844313645,4,48.75046169,2.25210401
Mably,765.9416809487026,7,46.05918018,4.059645552
Temse,765.0239941608367,7,51.13305466,4.205557655
Wachtberg,763.700397331022,3,50.62536524,7.117811313
Bayreuth,763.1109598138704,5,49.934500471,11.604571541
Alhaurín de la Torre,762.9724186709691,5,36.66152225,-4.583020815
Romiley,762.5489944411443,5,53.40341376,-2.061430263
Alzey,760.6160170837953,7,49.75147319,8.103202571
La Algaba,759.5805488947971,6,37.47269419,-6.017518761999999
Rezé,759.2944410812214,8,47.17685191,-1.550115908
Cuarte,758.4087929508989,4,42.09435318,-0.45879793929999996
Swallowfield,758.255327229887,4,51.39599222,-1.089785757
Reichenbach im Vogtland,757.4148840040718,6,50.62116123,12.3323953
Palencia,757.2439761445489,8,41.998853020000006,-4.5099338
Diksmuide,756.9994788652365,6,51.04741639,2.854162232
Nivelles,756.8350483204181,7,50.591255068,4.336532301199999
Donington,756.7854872348106,4,52.81285459,-0.2003223513
Cottbus,755.4053143901692,5,51.778385788,14.364684407999999
Treis-Sants-en-Ouche,755.0954069936752,4,49.10022197,0.5973543445
Saint-Jean-de-Luz,755.0791663985253,2,43.38877218999999,-1.639168575
Sankt Wendel,753.6475167185826,7,49.46707436,7.18331813
Oer-Erkenschwick,753.4699171058442,11,51.6609919,7.23944178
Stendal,753.469044657708,1,52.584956080000005,11.78310115
Sopelana,752.2049305945294,8,43.37744546,-2.978919154
Bron,752.1334799649813,5,45.73467229,4.911948397
Romainville,751.8293049712465,6,48.88466458,2.438045826
Waldshut-Tiengen,751.6046154387774,5,47.65184854,8.242908912
Saint-Ouen,751.3695876596848,7,48.90961573,2.33346147
Santa Margarita,751.3109108865468,4,36.20609565,-5.338912673
Conil de la Frontera,751.3030248358152,8,36.27321966,-6.074841354
Leymen,750.21392783687,6,47.54436591,7.472604792
Esplugues de Llobregat,749.937693073831,4,41.37917088,2.09088658
Issoire,749.254112687493,7,45.54680068,3.251859604
Speyer,748.1720447030644,7,49.32974078,8.435166782
Teltow,748.1261670049539,4,52.38514548,13.27360433
Paignton,747.8080500292338,2,50.45234976,-3.592683117
Pommerit-le-Vicomte,747.557461853453,6,48.58476457999999,-3.147655514
Neuss,747.1295748079173,11,51.20360211153846,6.686299912153847
Carmaux,746.910721191595,5,44.0428473,2.149024048
Morbecque,746.8967436552094,8,50.71606002,2.534726287
Lindlar,745.8623396315276,6,51.02462383,7.362594669
Chabanière,745.6826928978452,6,45.61210161,4.63981599
Royal Leamington Spa,745.662430073358,7,52.2938463275,-1.51361722475
Bagneux,745.604370766067,4,48.79831704,2.310122486
Wangen im Allgäu,744.4783800448654,6,47.69244617,9.806143155
Marville-Moutiers-Brûle,744.2418340291214,8,48.709557739999994,1.367537997
Braine-l'Alleud,742.9958664154876,7,50.6878938675,4.359365872833333
South Shields,742.9033864698177,4,54.97243535,-1.418003415
El Estepar,742.9014605501311,8,38.67861013,-0.5163363064
Salon-de-Provence,742.3461921082804,9,43.64560135,5.067261725
Glengormley,741.9275641607551,6,54.68405429,-5.963605589
Caixas,741.6264589641997,6,42.60002061,2.761946
Henstedt-Ulzburg,741.443099654418,5,53.78273559,10.02804276
Fürstenfeldbruck,741.2785153418012,9,48.1779488,11.229281
Belper,741.273547932366,10,53.02946085,-1.506173903
Berck,741.2142047586099,5,50.40398341,1.590529525
Arcos de la Frontera,740.6625391596418,6,36.74900002,-5.738011426
Gines,740.6360579663891,3,37.38638388,-6.076881827
Blois,740.6205979568527,5,47.61260073,1.320868897
Saint-Lon-les-Mines,740.2041571267323,7,43.57352477,-1.110460674
Montauban,737.622123600592,6,44.02224179,1.364283525
Saint-Gilles,736.6386598934672,6,49.933116792499995,4.3525068795
Saint-Nazaire,736.0305915324453,10,47.28006666,-2.250331602
Saint-Brice-sous-Forêt,735.6551801835242,3,49.00783712,2.346291134
La Hoguette,735.0032359136383,5,48.88847484,-0.2142134712
Le Bosc-du-Theil,733.7149231927452,6,49.23458899,0.9299661
Benicarló,733.6183313004899,2,40.44378656,0.4028642174
Vaihingen an der Enz,733.12518347224,9,48.94743434,8.965517833
Mössingen,733.0773598672424,2,48.39541718,9.073801465
Valdemorillo,731.0230226479875,2,40.50369531,-4.068789882
Ronse,730.80164707524,2,50.74968067,3.6075425799999996
Ostfildern,730.4961913152406,7,48.7175873,9.261166252
Vert-Saint-Denis,729.7348468229302,1,48.56435271,2.600005698
Saint-Ghislain,728.1397741045981,3,50.468770411428565,3.819092107142857
Longues-sur-Mer,727.8855839278715,3,49.28157561999999,-0.7155246367
Louth,727.7309098216343,7,53.37168191,0.024090972
Blean,726.9613461475037,8,51.30171731,1.066187177
La Puebla de Montalbán,726.7850878757465,2,39.81633221,-4.379348009
Saint-Pée-sur-Nivelle,726.4419849252079,3,43.33097717,-1.578218439
Bletchingley,726.2319036821375,6,51.23077683,-0.1298508294
Buchholz in der Nordheide,725.0482785126411,7,53.32016298,9.858505331
Espelkamp,724.293785866258,2,52.37143559,8.624594751
Yate,723.1756563403079,8,51.54223774,-2.397075615
Ashton-in-Makerfield,721.1055309671194,6,53.49569764000001,-2.650998094
Courbevoie,720.7748464661606,11,48.89839628,2.255652433
Sprockhövel,720.4187156233313,4,51.33807621,7.254099057
Cañada,719.9635514538445,4,39.53059227,-0.49496302989999996
Chanteau,719.453930773117,5,47.96179843,1.954652923
Rheine,719.3203891899212,5,52.267771412857144,7.474387840857143
Alken,719.2645750031303,5,50.87835672,5.290423604
Miranda de Ebro,718.8372633201552,3,42.689206057999996,-2.8635728806
Le Bouscat,717.7268980366051,7,44.8659607,-0.6032269776
Endasa,716.7966044619117,3,43.57658807,-5.89240514
Inca,715.1198057330722,6,39.71172579000001,2.942160161
Rees,714.8220598424064,2,51.77335622,6.420494659
Osterode am Harz,714.7443896194218,5,51.71777593,10.22779571
Altlandsberg,714.6054639622391,5,52.59450485,13.90636121
Fontainebleau,713.9743593053107,8,48.40654913,2.681056268
Torrevieja,713.7135976798477,4,37.993971776,-0.70237169062
Donaueschingen,713.3818986893305,7,47.95977943,8.49144795
Sendets,711.6343792857555,5,43.2938346,-0.2945626829
Montbert,711.3820525169575,3,47.06065983,-1.455841828
Ellesmere Port,711.2771525620974,6,53.280538549999996,-2.951981693
Dolores,710.8542051671774,3,37.81870372,-0.8633324278
Salses-le-Château,710.099580634751,4,42.82394291,2.852534413
Greifswald,710.0626152394669,5,54.08393538,13.37298147
Northeim,709.7508884512304,5,51.71661699,9.995920819
Attendorn,709.6247051194431,5,51.12090833,7.897841535000001
Figeac,709.2734935774281,2,44.61981423,1.999354899
Bernes-sur-Oise,708.7542296077047,7,49.16072778,2.263926055
Tiverton,707.92593952349,5,50.93965173,-3.526153927
Luxeuil-les-Bains,707.1984829186333,4,47.78884971,6.356948728
Medina del Campo,707.1603100025923,3,41.3158895,-4.92283575
Eberswalde,706.8519045464046,9,52.84140718,13.81961208
Saint-Étienne-de-Montluc,706.1636632582824,3,47.29316912,-1.774369102
Bridgend,706.0106765730641,6,51.51008502,-3.576235861
Wedel,705.9090641772697,6,53.58872934,9.70299123
San Sebastián de los Reyes,705.4919481954141,7,40.549406534444444,-3.599975841666667
Calafell,705.4360848107173,3,41.20765612,1.580606711
Saint-Sulpice-le-Guérétois,704.767761968018,5,46.163434239999994,1.861779015
Habay,704.6571626659968,5,49.73468706,5.560884704
Jüchen,704.0459988091607,3,51.10258853,6.506345839000001
Stutensee,703.5735177130898,3,49.09137588,8.47609123
Sant Vicenç dels Horts,703.4404733319006,4,41.39047031,2.0030588
Gotha,702.4609444774233,4,50.94031034,10.70480667
Puente Genil,702.0147898953753,6,37.40679767,-4.759746865
Rincón de la Victoria,700.5601807339784,4,36.73265197,-4.275178531
Tafalla,700.4023510955158,1,42.51559378,-1.7100379840000002
O Milladoiro,700.17240182641,3,42.84354536,-8.605632496
Fréjairolles,699.418680999763,2,43.89420188,2.179788731
Wavre,699.0954681762913,10,50.71611435,4.5891198645
Zoersel,698.9628871641502,4,51.25757149,4.670659969
Steinfurt,698.5733139856984,5,52.14464815,7.369459194
Fenouillet,697.8903947272083,7,43.70840524,1.396843367
Wigan,697.3971021547482,2,53.52687562,-2.64894365
Willich,696.9520457920477,6,51.26255989,6.519003125
Wallington,696.7587559661472,6,51.36112927,-0.142388231
Vlotho,695.6465694032152,3,52.14697642,8.837791675
Tarnos,694.7405994271651,4,43.53713417,-1.465910658
Palmones,693.8034293172999,4,36.2158637,-5.4585269
Horley,689.9875552450966,9,51.16826056000001,-0.1685357437
Vilafranca del Penedès,689.7798575403647,9,41.34751239,1.700931543
Ehingen (Donau),689.6700010076165,1,48.28090162,9.669923856
Cintruénigo,688.9650002442067,2,42.0659518,-1.7943794310000003
Heusden-Zolder,688.9497895159741,4,51.01983332,5.289168028
Perdreauville,688.3435525448384,9,48.96587423,1.647056459
Baugé en Anjou,686.3364595569288,4,47.56419883,-0.10169339510000001
Borehamwood,684.2421545604618,7,51.65912828,-0.2803417024
Cuart de Poblet,683.6459112730922,6,39.4722775,-0.4957911638
Chevilly-Larue,683.2344842969648,3,48.76690039,2.352896829
Brimington,683.1534011373365,8,53.27241898,-1.328066402
Geseke,683.0218800427084,4,51.634709869999995,8.492241568
Böblingen,681.780394491248,7,48.680346754,8.999289099
Dorlisheim,681.7415671937091,5,48.543337,7.533166216000001
Lüneburg,679.1683458401185,3,53.229151117142855,10.416669432857143
Mont-de-Marsan,679.1468928276099,4,43.89959137,-0.49042557419999994
Jette,678.4143892502743,6,50.8817612,4.321330764
Vendin-le-Vieil,678.1885778356647,9,50.47020469,2.870451865
Beerse,676.3050016053021,1,51.31436220999999,4.823315693
Dungannon,675.3626351185521,6,54.51449268,-6.678408451
Sandrans,674.6535543273376,1,46.13324182,4.998410005
Wetter (Ruhr),674.396189176939,6,51.37771593,7.353691492
Schiltigheim,674.1884404007918,6,48.61197282,7.746419335999999
Forest,674.1072039008226,8,50.81396897,4.324148837
Bétera,673.8420236811277,3,39.6155614,-0.4677476961
Margate,673.8299362945532,4,47.78665896571429,-10.272571855999999
Rottenburg am Neckar,673.5498840802942,5,48.47334114,8.906982876
Barking,671.1018583880182,10,51.5308712,0.09962388434
Collias,671.0942763091666,4,43.95863508,4.54361465
Sant Just Desvern,670.9844973144717,6,41.39255753,2.079262467
Santurce,670.5291594932733,6,43.33078171,-3.047161564
Bernburg (Saale),670.0403683362491,3,51.77502486,11.76798991
Bad Oeynhausen,669.9965742304133,5,52.24106682,8.789381919
Parque de Las Castillas,667.6480861093254,3,40.68548859,-3.346733212
Santa Coloma de Gramanet,667.2365066799682,11,41.4569263475,2.2066580645
Waltrop,665.873966908891,4,51.62321544,7.399441514
Villejuif,665.7855966740137,6,48.792388069999994,2.359769882
Offenbach am Main,665.6249101945068,10,50.08659518857142,8.768384197285714
Detmold,663.6774676471962,9,51.94846258727273,8.879494867545453
Enger,663.538193628493,3,52.13866174,8.553795237
Ryton-on-Dunsmore,663.4720846251082,9,52.35726917,-1.532317548
Peligros,662.7729342965793,3,37.24163914,-3.630212324
Wesseling,661.9676387925128,7,50.81710695,6.9773466399999995
Jodoigne,661.8689037789974,6,50.72840426,4.860310672
Chacrise,660.6607226540416,5,49.35181227,3.320381571
Amberg,660.3726073196768,7,49.45075324,11.845400730000001
Koekelberg,659.8126764148479,6,50.86306717,4.324022841
Totton,659.5515883914919,5,50.9042543,-1.510645608
Waiblingen,659.3912324017269,3,48.82815084,9.307438189
Devizes,658.7755510424579,5,51.31438978,-1.974513325
Tollerton,658.0432196927263,5,52.89817034,-1.040746278
Halesowen,657.4823123324015,9,52.43737914444445,-2.051688796
Turnhout,656.7810622540419,5,51.32905995,4.940185015
Roosdaal,656.2941150806935,2,50.84963287,4.127049768
Hannut,655.6634720757686,7,50.66610739000001,5.073156155
Archena,654.4936900949752,4,38.11232012,-1.296813682
Gevelsberg,654.1383677913568,6,51.33352182,7.340167498
Chaudfontaine,653.5054154743458,5,50.578986471250005,5.642316113124999
La Garde,652.0482564336576,4,43.12679579,6.019370626
Saint-Loubès,651.8472005684405,3,44.91209728,-0.4017426341
Le Bas-Ségala,651.055587679807,6,44.33208606,2.012699471
Don Benito,648.4390546874849,4,38.8629812,-5.899990601
Le Bosc,646.1302548060603,9,42.95140643,1.580793276
Achim,644.8723770817452,3,53.0211975,9.038604247
Narbonne,644.7122732341954,7,43.16142949,3.0082428699999997
Remy,644.6123399817849,6,49.44397669,2.632694065
Thonon-les-Bains,643.8392793984734,8,46.34132371,6.505484373
Templin,643.6295992218196,7,53.14878855,13.58867696
West Wellow,642.5600674986972,7,51.0004626,-1.5232248010000002
Kaarst,642.5117397355807,9,51.21943858,6.611071841
Porto Cristo,641.3159994459673,4,39.53778591,3.29253368
Fontenay-le-Comte,640.9802599561546,2,46.470515,-0.8041029105
Bagnolet,640.5627101493694,5,48.86903733,2.422710755
Kineton,640.4394578695455,2,52.21632457,-1.585269045
Delmenhorst,640.3870849590712,7,53.061743889999995,8.66452291211111
Gandía,637.2877879945237,3,38.97734823,-0.1807595288
Schashagen,636.530466741695,5,54.124770569999995,10.82054732
La Grande-Paroisse,636.3118997388334,4,48.37852016,2.963703853
Uxbridge,636.1782392281382,6,51.53300705,-0.47026505300000004
La Puebla de Cazalla,635.204361615493,5,37.16233036,-5.275111394
Bad Rappenau,633.5754897462746,2,49.23918626,9.064500167
Zirndorf,633.3992074559001,4,49.43515186,10.92541441
Villarrobledo,633.2005238849554,5,39.19271943,-2.612162025
Lloret de Mar,633.1250744033151,7,41.72232664,2.834849933
Burg (bei Magdeburg),633.1060819209611,5,52.28407898999999,11.85634789
Mâcon,633.039589709723,2,46.31785676,4.820088069
Le Kremlin-Bicêtre,631.788219196042,7,48.80873838,2.355872399
Unterschleißheim,630.9631256878479,5,48.27632658,11.56013066
Exmouth,630.8399025399614,4,50.636823500000006,-3.3929522190000005
Lippstadt,630.1275398810444,7,51.65919656,8.349802544
Selm,629.2918828694941,7,51.6839572,7.485600731999999
Southend-on-Sea,628.9431896274382,8,51.554851071,0.6675441038300001
Freital,628.1498011855209,3,50.99826468,13.63441006
Toulaud,628.0059603388319,1,44.93188324,4.812536266
Zeitz,627.6567657962281,5,51.0179874,12.150601200000002
Torrellano,627.0586749511469,3,38.28935288,-0.5915337501
Warhem,626.2746299970103,5,50.95900401,2.429845028
Verdun,625.4542836409297,6,49.18521135,5.337812415999999
Bathgate,623.7693914465817,3,55.90485125,-3.6839480849999995
Wembley,623.458289660749,10,51.55490212307692,-0.29841923365384615
Abrest,622.9626308804357,4,46.10756068,3.453944408
Alcácer,622.6583066593312,5,39.38108566,-0.4471561843
Vair-sur-Loire,622.4098853889182,3,47.39303538,-1.139134266
Maisons-Laffitte,621.9716361008666,2,48.94343927,2.141803103
Clydebank,621.4927446533796,8,55.93804555,-4.404580157
Vellmar,620.7580831778581,4,51.36282423000001,9.466051146
Elven,620.3399720845248,3,47.71631688,-2.60625385
Holbeach,620.2932923062453,10,52.78832444,0.03233699813
Farnborough,620.0895303179466,8,51.29003139,-0.7713350981
Le Poiré-sur-Vie,619.4946552975273,6,46.80299575,-1.454812781
Vila-seca,618.7884907019011,2,41.10558439,1.135014005
Llinars del Vallès,618.7538095932124,4,41.63561033,2.408275476
Tielt,618.6903018812,1,51.00650992,3.363679519
Weymouth,618.5901021653051,8,50.60752804,-2.472109178
Flemalle,618.3085839267336,8,50.59702218,5.441142829
Nozay,617.6676962619745,6,48.66085447,2.246826711
Zulte,617.3349622489327,7,50.93736954,3.472654564
Paterna,617.1298127665373,5,39.52813872,-0.4509882608
Rayleigh,616.7320221472639,4,51.59076878,0.6082565808000001
Saint-Berain-sous-Sanvignes,616.2883198186013,2,46.67344195,4.397726628
Cenon,615.5971572830786,4,44.85490335,-0.521410869
Burgwedel,615.2461124088738,4,52.53595071,9.888271454
Wunstorf,614.7981265240692,5,52.43680642,9.392804883
Moorslede,614.0761938064534,4,50.88088217,3.079057129
Woluwe-Saint-Lambert,613.9077908747113,10,50.84782635,4.431757647
Hemer,613.7915737392505,7,51.36794084,7.777131578
Pontypool,613.2649737016663,6,51.72713131,-3.043222253
Garrapinillos,612.8808544281976,6,41.67804961,-1.083996731
Püttlingen,612.6404989587609,2,49.29392683,6.895178156
Penarth,612.2484621580625,3,51.428145660000006,-3.2046934129999998
Forst (Lausitz),612.2350446331685,9,51.72628919,14.60155145
Heiteren,611.9247264371891,5,47.9984689,7.52945896
Aspe,610.6919357126369,2,38.32953044,-0.7853103087000001
Sankt Augustin,609.831871562739,6,50.77138924,7.189810202
Can Pastilla,608.8190415694733,6,39.5316256,2.729698531
Paiporta,608.5716292593078,6,39.425878299999994,-0.4124031112
Épinay-sur-Seine,608.1807338948702,6,48.95500518,2.313969174
Guardamar del Segura,607.9320172768878,5,38.08533016,-0.6677385601
Moussy-le-Neuf,607.5930050108051,7,49.03767452,2.680159038
Still,607.1731789718677,3,48.52981192,7.373927047
Westerstede,606.4457372789217,5,53.26161020999999,7.922373193
Saint-Christophe-de-Double,606.3518653296003,6,45.06473398,-0.1062615251
Taverny,606.299815001488,3,49.02629679999999,2.220626386
Connah's Quay,606.0983480460586,6,53.21217227999999,-3.032135376
Caudry,606.0018907225026,4,50.12540278,3.431895167
Crawley,604.6758555842073,9,51.112928012000005,-0.16266933872000003
Avileses,604.3824855464327,4,37.83591597,-0.9283207610999998
Werl,603.5822999971703,4,51.55633378,7.908990265
Thionville,602.859864332012,2,49.37654864,6.13682665
Baincthun,602.2174710883419,4,50.68259487,1.667892677
Goch,602.0669979419299,6,51.69538595,6.123678894000001
Fortaleza de Isabel II,601.1890236490774,2,39.93825513,4.242766522
Friedberg,600.1644969918299,5,48.36230068,11.00329143
Baracaldo,600.1301703480649,7,43.27326611749999,-3.005614906375
Finchampstead,599.6300950418092,6,51.39366189,-0.8361380881999999
Castelnaudary,599.3540906929733,5,43.33331694,1.978230851
Chiclana de la Frontera,599.343147888603,6,36.39303000666667,-6.116447645
Las Lagunas de Mijas,599.053343680711,3,36.56535341000001,-4.677522305
Sète,598.7354955117144,4,43.39053565,3.6196092260000006
Beeston,598.380248369476,4,52.93014871,-1.244851196
Clairmarais,598.1911506292507,5,50.75816417,2.229542384
Pontllanfraith,597.722044197063,4,51.682731319999995,-3.190946734
Wittmund,597.6534839424102,5,53.58514972999999,7.758557491
Erdre-en-Anjou,597.3431398333056,1,47.62706497,-0.7383208627999999
Franconville,597.3067191848444,6,48.99279334,2.227084278
Prestwich,596.9825163402164,6,53.53316745,-2.269258848
Archamps,596.6217888961575,6,46.11519691,6.104791706
Carcassonne,596.5639301683194,2,43.20954151,2.345988484
Bregenz,595.9909461549215,7,47.52226843,9.75635227
Nordenham,595.9614640753279,7,53.49435123999999,8.456032353
Beaucaire,595.2689947622046,5,43.78060367,4.582498905
Pierrelatte,594.8795733699801,7,44.37173322,4.70988496
Pontault-Combault,594.4986577302741,6,48.78686978,2.613868523
Maintal,593.6565511502164,6,50.153518870000006,8.835389755
Boulay-Moselle,593.5775383136347,3,49.18416413,6.495911016
Bassenge,592.8981529663243,5,50.76564222,5.610135125
Glauchau,592.1321105824088,6,50.8143029,12.554522479999997
Bréal-sous-Montfort,591.870172422743,6,48.06152746,-1.864112108
Lannion,591.6607469687239,7,48.71154769,-3.468944049
Wesel,589.893959864634,5,51.66840232,6.5994618495
Jebsheim,589.8158377529362,4,48.10115073,7.492469588
Saint-Laurent-d'Aigouze,589.2797118360074,3,43.56314972,4.219367931
Ayamonte,589.159949767797,5,37.28347815,-7.389440419
Vilanova del Camí,588.5559041612282,4,41.56147844,1.634511235
Soltau,588.3497695239182,2,52.99589237,9.856468238
Weißenfels,588.0850299958154,3,51.20156608,11.93743562
Dietzenbach,588.0090903113557,8,50.01119097,8.784380347
Lézignan-Corbières,587.8079110814232,6,43.16635452,2.78911087
Saint-Galmier,587.4462656265588,5,45.58355987,4.325600187
Gibraleón,587.1980989762411,4,37.39600066,-6.994450541
Torre-Pacheco,586.8519843976928,4,37.76047062,-0.9599845425
Günzburg,586.4524467984896,3,48.46614845,10.28018448
Frontignan,586.2367652434123,5,43.47169257,3.7770619979999998
Opwijk,584.1141627088787,5,50.96245636,4.180708915
Saint-Leu-la-Forêt,583.5886801711839,8,49.02002623,2.247069342
La Rochelle,583.2879316891075,7,46.16207939,-1.172930607
Burton upon Trent,583.0899944400398,5,52.798811470000004,-1.6976356157777777
Florimont,582.8926854237147,4,47.52619841,7.026372279
Cournon-d'Auvergne,581.9564667726556,4,45.73153473,3.216716146
Verdun-sur-Garonne,581.672722957692,4,43.85306524,1.168448989
Great Yarmouth,580.8475193218641,8,52.597423758888894,1.6851602475555554
Alfaz del Pi,580.0873195436861,3,38.58598585,-0.09880268660999998
Apolda,578.680922564324,6,51.03637902,11.5033257
La Baule-Escoublac,578.5294501596126,5,47.29071813,-2.35368849
Calpe,578.5096530188181,6,38.65270893,0.04437321718
Marquise,578.4615007471293,2,50.83022171,1.710386602
Viersen,578.335165672927,7,51.26832508125,6.336985242625
Bremerhaven,578.1845386224101,8,53.52230099,8.585834700375
Overijse,578.1431369057863,4,50.77144647,4.532769178
Châtenay-Malabry,578.0621778495106,7,48.76823257,2.263337108
Pilas,577.8634893958798,3,37.30538854,-6.312922333
Florennes,576.6711895040909,2,50.2925536,4.557102509
Rosenheim,576.1112665454928,3,47.83080818,12.103996430000002
Arpajon-sur-Cère,575.8739995253272,3,44.87919722,2.490794541
Saint-Jacques-de-la-Lande,575.320472414725,6,48.07617647,-1.72247938
Rochefort,574.4751583490596,8,46.27293612538462,-0.5024912348615385
Sant Feliu de Llobregat,573.6845398785836,2,41.39508014,2.049779191
Omagh,573.5940011423081,5,54.5714932,-7.413382485
Aubervilliers,573.1743303460488,8,48.91249356,2.384610175
Oberhaching,572.4817831106906,5,48.01835642,11.569989
Lurgan,571.8550206664247,6,54.45507757,-6.342679059
Locon,571.8129009552956,2,50.54335449,2.657012374
Bruz,570.9901854574156,4,48.02596709,-1.7484062069999997
Wildeshausen,570.6267630329073,4,52.879842180000004,8.403682866
Cazouls-lès-Béziers,570.6167997357988,5,43.38331859,3.097134215
Wishaw,570.5392154411925,4,55.77508614,-3.886182829
Meco,569.5829332108734,2,40.55708099,-3.32306859
Stanmore,569.0905824449083,4,51.6178072,-0.3134363628
Villeneuve-sur-Lot,568.9474486139673,6,44.40780296,0.7118205713
Choisy-le-Roi,568.7614577129541,4,48.764257259999994,2.417108925
Épieds-en-Beauce,568.6976128598934,4,47.89949863,1.650891038
Marignane,567.2886290453017,3,43.41757576,5.212073584
Saint-Lô,567.0619005091569,7,49.119888190000005,-1.088464715
Triel-sur-Seine,567.0552930823816,7,48.97829744,2.008403955
Guildford,566.6612787540251,5,51.24347595,-0.5950492754
Estaimpuis,566.5795478509896,6,50.68764587,3.288427814
Verviers,566.4917204038659,8,50.581907815,5.860686745600001
San Ginés,565.4610013682395,3,37.965048,-1.17455065
Champs-sur-Marne,564.8613032824013,6,48.84816623,2.596548676
Saint-Brieuc,564.6078689391495,2,48.5143068,-2.762986523
Remscheid,563.5552528539877,1,51.16540586,7.206425542999999
Plaisance-du-Touch,563.1431734781693,3,43.55763647,1.285832453
Burntwood,563.1270270997204,4,52.67691238,-1.9136275879999998
La Escarihuela,562.5941941907286,3,37.5804762,-1.768343372
Grimbergen,561.9823253290991,6,50.929264357142856,4.363951731857143
La Ciotat,561.9733279805745,8,43.20527764,5.622254502
Alpedrete,561.5401524119027,5,40.65005122,-4.03059391
Lucena,561.4470655042618,7,37.35337131,-4.535131052
Grandchamps-des-Fontaines,561.4461819198369,6,47.341153569999996,-1.621504088
Montigny-lès-Cormeilles,561.3146686319652,1,48.99368567,2.194336548
Premià de Dalt,560.922904340316,2,41.50578624,2.344212551
Lage,560.3322609109783,6,51.98225206,8.777661785
Martorell,560.1890402181624,5,41.4789329,1.917793116
Hinckley,560.1334246432134,6,52.52098704,-1.353843407
Bad Berleburg,559.8799516525223,4,51.05504213,8.40618069
Neuilly-sur-Seine,559.786589535482,8,48.88604457,2.267206657
Calw,559.357826250556,4,48.7096776,8.735883854
Le Raincy,559.3455549877996,2,48.89676538,2.519530051
Bonneuil-sur-Marne,558.6303939943303,2,48.77331602,2.487854609
Évreux,558.5120387238702,6,49.01978272,1.141656238
Romilly-sur-Seine,557.8360801558355,2,48.47940375,3.6915159659999994
Caravaca de la Cruz,557.7605998086086,7,38.10074304,-1.876530176
Bellefont-La Rauze,556.92674816362,4,44.458094429999996,1.4757965759999998
Dilbeek,556.92674560396,5,50.85895781000001,4.239344328
Pollensa,556.7289136844931,4,39.88616425,3.028195914
Bouguenais,555.7637933316405,3,47.170664710000004,-1.616751163
Bize-Minervois,555.6633277803679,4,43.27946003,2.883844436
Rheda-Wiedenbrück,554.5813862076819,5,51.83887450000001,8.305723842
Darwen,554.4248379212086,7,53.6917842,-2.463984543
Seninghem,553.5820767902919,3,50.68400498,2.079181235
Izeure,553.201737932928,5,47.22501051,5.201212474
Noroy-le-Bourg,553.1277767682923,5,47.60095231,6.1559892000000005
Laguna de Duero,552.6099443770458,5,41.57223426,-4.718847256
L'Isle-sur-la-Sorgue,549.0737394292152,2,43.91593803999999,5.086415838
Westhoughton,548.5919999512844,5,53.54996252,-2.513378489
Schoten,548.5189166898112,5,51.26412919,4.508247416999999
Bad Homburg vor der Höhe,547.5539992041886,1,50.24643004,8.563467513
Portadown,547.514998074621,3,54.41030012,-6.481266316
Campello,547.3848302347009,4,38.46230752,-0.3727130386
Utiel,547.1147834203391,2,39.6136302,-1.20929285
La Zubia,546.4603232852363,10,37.11023452,-3.571659518
Walsrode,546.3103194651309,2,52.84019299,9.642421649
Witham,545.9326145177606,5,51.81172206,0.6400315203
Rentería,545.5014427599308,2,43.27775605,-1.8857113570000001
Saint-Didier-de-la-Tour,544.6499992087483,2,45.57028841000001,5.452772744
Vechta,544.0415965108637,3,52.74135632,8.285508012
Clichy,543.3880526654485,7,48.90402366,2.306069877
La Garenne-Colombes,543.1503005089917,4,48.9068666,2.245262618
Zarauz,543.0670474516226,6,43.27369871,-2.169253411
Gangelt,542.9768128616964,3,51.01117768,5.971793365
Mios,542.6066344138505,7,44.63818848,-0.9049283785999999
Gillingham,542.2713732149246,2,51.3636189,0.5653509588
Échirolles,542.0876988510109,3,45.14686419,5.715377579
Sagunto,541.6992164449051,4,39.69231484,-0.284684181
Gavere,540.8536200687877,2,50.92894929,3.685580246
Freiberg,540.7344898447788,4,50.91432132,13.33339963
Plérin,540.5298919963898,3,48.54393873,-2.769657422
Aubange,540.4436062108615,3,49.57518787,5.7904308332222225
Menton,540.3067871836109,5,43.80742903,7.477730178
Sélestat,540.0465001345128,5,48.26486661,7.489722664
Sonthofen,539.4606418444972,3,47.50242088,10.29213495
Pepinster,538.2576015887294,4,50.580048915,5.7923676455
Pégairolles-de-l'Escalette,537.9901569871269,7,43.74533278,3.346726442
King's Lynn,537.7162513721656,6,52.78026792,0.4149069199
Grau y Playa,535.8815752733651,4,38.99581374,-0.1723912141
Cachan,535.8706539904833,6,48.791626779999994,2.331896462
La Thuile,535.4635207308228,4,45.53644489,5.99895832
Leuze-en-Hainaut,534.4434958832569,5,50.602199524444444,3.664063578666667
Wichelen,534.2468737146866,3,50.99875293000001,3.953450891
Whissendine,533.1025505225648,5,52.65866275,-0.6997331323
Les Pennes-Mirabeau,532.8344940296262,6,43.4029467,5.315841029
Alfaro,531.9441791903035,4,42.16355029,-1.8310982939999998
Kürten,531.3175301087175,6,51.04006544,7.255758516999999
Agde,531.0798541009344,3,43.308904000000005,3.4846323399999997
La Unión,528.7835433068852,5,37.6089409,-0.8744562674999999
Las Torres de Cotillas,528.1253480197017,5,38.027231140000005,-1.2489895248
Meschede,528.0316158371154,5,51.33810037,8.247669563
Rixensart,528.0270645208439,4,50.723079972,4.5151103514
Oschersleben,527.9682994727782,2,52.02889651,11.26114757
Ballan-Miré,527.9678490834868,3,47.34262028,0.558366034
Uhlstädt-Kirchhasel,526.1321978659696,3,50.75199727,11.34600557
Gien,525.7460711898304,6,47.66980273,2.620374911
Bois-Colombes,525.7345190095264,6,48.91547585,2.268106497
Kamen,525.7052207781904,4,51.58204368,7.665610702
La Selle-sur-le-Bied,525.3051930677038,4,48.0888365,2.865968964
Burgdorf,524.9619648236753,1,52.470865690000004,10.01721554
Saint-Jean-de-Braye,524.7522278797035,3,47.91624983,1.973373728
Tullins,524.7436532480918,4,45.27021755,5.509006591
Harrogate,523.6942816753239,9,53.99550767,-1.5243902485
Nettetal,522.8369064192739,5,51.31633272999999,6.250273672
Cerdanyola del Vallès,522.8145958631261,6,41.47589712999999,2.129683787
Périgueux,522.225661596466,3,45.19207211,0.7117723342
Cernay,522.0234290790331,5,47.80556533,7.159734599
Caldes de Malavella,521.6071431352035,2,41.83625605,2.805730825
Cox,521.2877725155312,2,38.14444876,-0.9008369251999999
Auriol,521.1009000920936,3,43.36068679000001,5.658548933
Les Abrets en Dauphiné,521.0443403942493,4,45.54784274,5.574323447
Frasnes-lez-Gosselies,520.6889990810305,3,50.5336555,4.440338386
Cabrera de Mar,520.0965018169954,1,41.52581966,2.401182247
Evergem,520.0810217988003,4,51.14330708,3.7080425
Le Cannet-des-Maures,519.3751514762238,4,43.38750957,6.301900787000001
Évellys,519.1574415733864,4,47.92042462,-2.823534166
Mittelherwigsdorf,519.0573294403969,3,50.90464478,14.776555759999999
Chorley,518.9152176993031,8,53.65938118333333,-2.6204679135555553
Bad Honnef,518.6825171568813,5,50.65333579,7.278441707999999
Saintes,517.6954925093825,3,45.75736555,-0.6040014379
Saint-Georges-sur-Loire,517.6342191310997,3,47.41987999,-0.7441187077
Noyon,517.4714401861032,4,49.57035185000001,3.037896489
Versonnex,517.2435865546314,2,46.27795867,6.100398002000001
Urmston,517.0874690621334,4,53.451443360000006,-2.366407089
Sangonera la Verde,516.2279400790608,3,37.92792459,-1.208009592
Essômes-sur-Marne,515.7657015652444,3,49.06428946,3.391137065
Roquetas de Mar,515.5884136144043,2,36.75425187,-2.627763897
Quessoy,515.321253558917,3,48.46223028,-2.653233248
Éibar,513.8566841494594,6,43.19627819000001,-2.466103473
Soest,513.0526544332433,4,51.56582057,8.086278771
Carryduff,513.0275060743129,3,54.52964572,-5.903302366
Illkirch-Graffenstaden,512.8524221876335,3,48.52024556,7.731488373
Meißen,511.8639910713753,6,51.1611457,13.47744675
Bernau bei Berlin,510.7095514245504,3,52.69152766,13.581380610000002
Brié-et-Angonnes,510.62337058539794,3,45.13759233,5.775163431
